[
  {
      "name": "n/a",
      "speaker": "Bertine Geane",
      "location": "Poste du Lac",
      "date": "2023-11-24T23:34:02Z",
      "url": "https://army.mil/lorem.json?ornare=dis&imperdiet=parturient&sapien=montes&urna=nascetur&pretium=ridiculus&nisl=mus&ut=etiam&volutpat=vel&sapien=augue&arcu=vestibulum&sed=rutrum&augue=rutrum&aliquam=neque&erat=aenean&volutpat=auctor&in=gravida&congue=sem&etiam=praesent&justo=id&etiam=massa&pretium=id&iaculis=nisl&justo=venenatis&in=lacinia&hac=aenean&habitasse=sit&platea=amet&dictumst=justo&etiam=morbi&faucibus=ut&cursus=odio&urna=cras&ut=mi&tellus=pede&nulla=malesuada&ut=in&erat=imperdiet&id=et&mauris=commodo&vulputate=vulputate&elementum=justo&nullam=in&varius=blandit&nulla=ultrices&facilisi=enim&cras=lorem&non=ipsum&velit=dolor&nec=sit&nisi=amet&vulputate=consectetuer&nonummy=adipiscing&maecenas=elit&tincidunt=proin&lacus=interdum&at=mauris&velit=non&vivamus=ligula&vel=pellentesque&nulla=ultrices&eget=phasellus&eros=id&elementum=sapien&pellentesque=in&quisque=sapien&porta=iaculis&volutpat=congue&erat=vivamus",
      "lat": 12.41086,
      "lng": 108.17682,
      "position": {
          "lat": 12.41086,
          "lng": 108.17682
      }
  },
  {
      "name": "Savings Institutions",
      "speaker": "Damian Hundey",
      "location": "Longgang",
      "date": "2023-04-15T05:14:57Z",
      "url": "http://google.es/et/magnis/dis/parturient.aspx?ultrices=leo&aliquet=maecenas&maecenas=pulvinar",
      "lat": 22.720974,
      "lng": 114.246899,
      "position": {
          "lat": 22.720974,
          "lng": 114.246899
      }
  },
  {
      "name": "Construction/Ag Equipment/Trucks",
      "speaker": "Duky Santostefano.",
      "location": "Candating",
      "date": "2023-03-05T13:08:14Z",
      "url": "http://yale.edu/nec.js?vel=scelerisque",
      "lat": 15.1503549,
      "lng": 120.8129183,
      "position": {
          "lat": 15.1503549,
          "lng": 120.8129183
      }
  },
  {
      "name": "Restaurants",
      "speaker": "Aloysia Tatlow",
      "location": "Vale da Pedra",
      "date": "2023-09-12T06:04:08Z",
      "url": "https://craigslist.org/maecenas/ut/massa/quis/augue/luctus/tincidunt.aspx?luctus=aliquet&ultricies=ultrices&eu=erat&nibh=tortor&quisque=sollicitudin&id=mi&justo=sit&sit=amet&amet=lobortis&sapien=sapien&dignissim=sapien&vestibulum=non&vestibulum=mi&ante=integer&ipsum=ac&primis=neque&in=duis&faucibus=bibendum&orci=morbi&luctus=non&et=quam&ultrices=nec&posuere=dui&cubilia=luctus&curae=rutrum&nulla=nulla&dapibus=tellus",
      "lat": 39.8595809,
      "lng": -8.7836111,
      "position": {
          "lat": 39.8595809,
          "lng": -8.7836111
      }
  },
  {
      "name": "Real Estate Investment Trusts",
      "speaker": "Gerty Samwell",
      "location": "Cana Chapetón",
      "date": "2023-02-28T13:37:16Z",
      "url": "http://digg.com/semper/sapien/a/libero/nam/dui/proin.jsp?placerat=interdum&praesent=venenatis&blandit=turpis&nam=enim&nulla=blandit&integer=mi&pede=in&justo=porttitor&lacinia=pede&eget=justo&tincidunt=eu&eget=massa&tempus=donec&vel=dapibus&pede=duis&morbi=at&porttitor=velit&lorem=eu&id=est&ligula=congue&suspendisse=elementum&ornare=in&consequat=hac&lectus=habitasse&in=platea&est=dictumst&risus=morbi&auctor=vestibulum&sed=velit&tristique=id&in=pretium&tempus=iaculis&sit=diam&amet=erat&sem=fermentum&fusce=justo&consequat=nec&nulla=condimentum&nisl=neque&nunc=sapien&nisl=placerat&duis=ante&bibendum=nulla",
      "lat": 19.604951,
      "lng": -71.252526,
      "position": {
          "lat": 19.604951,
          "lng": -71.252526
      }
  },
  {
      "name": "Telecommunications Equipment",
      "speaker": "Almeda Julien",
      "location": "Mosty",
      "date": "2023-08-28T19:02:37Z",
      "url": "https://house.gov/posuere/cubilia/curae/nulla/dapibus/dolor.xml?interdum=odio&mauris=elementum&non=eu&ligula=interdum&pellentesque=eu&ultrices=tincidunt&phasellus=in&id=leo&sapien=maecenas&in=pulvinar&sapien=lobortis&iaculis=est&congue=phasellus&vivamus=sit&metus=amet&arcu=erat&adipiscing=nulla&molestie=tempus&hendrerit=vivamus&at=in&vulputate=felis&vitae=eu&nisl=sapien&aenean=cursus&lectus=vestibulum&pellentesque=proin&eget=eu&nunc=mi&donec=nulla&quis=ac&orci=enim&eget=in&orci=tempor&vehicula=turpis&condimentum=nec&curabitur=euismod&in=scelerisque&libero=quam&ut=turpis&massa=adipiscing&volutpat=lorem&convallis=vitae&morbi=mattis&odio=nibh&odio=ligula&elementum=nec&eu=sem&interdum=duis&eu=aliquam",
      "lat": 54.5489994,
      "lng": 17.7869518,
      "position": {
          "lat": 54.5489994,
          "lng": 17.7869518
      }
  },
  {
      "name": "Real Estate Investment Trusts",
      "speaker": "Harley Plackstone",
      "location": "Santa Ignacia",
      "date": "2023-06-11T16:08:45Z",
      "url": "http://ucoz.ru/erat/id/mauris/vulputate/elementum/nullam/varius.jsp?vestibulum=nam&ac=dui&est=proin&lacinia=leo&nisi=odio&venenatis=porttitor&tristique=id&fusce=consequat&congue=in&diam=consequat&id=ut&ornare=nulla&imperdiet=sed&sapien=accumsan&urna=felis&pretium=ut&nisl=at&ut=dolor&volutpat=quis&sapien=odio&arcu=consequat&sed=varius&augue=integer&aliquam=ac&erat=leo&volutpat=pellentesque&in=ultrices&congue=mattis&etiam=odio&justo=donec&etiam=vitae&pretium=nisi&iaculis=nam&justo=ultrices&in=libero&hac=non&habitasse=mattis",
      "lat": 15.613097,
      "lng": 120.438477,
      "position": {
          "lat": 15.613097,
          "lng": 120.438477
      }
  },
  {
      "name": "Marine Transportation",
      "speaker": "Beatrix McAmish",
      "location": "Mulatupo",
      "date": "2023-08-07T11:02:39Z",
      "url": "http://diigo.com/aliquam/sit/amet/diam/in/magna/bibendum.aspx?dui=pretium&vel=nisl&sem=ut&sed=volutpat&sagittis=sapien&nam=arcu&congue=sed&risus=augue&semper=aliquam&porta=erat&volutpat=volutpat&quam=in&pede=congue&lobortis=etiam&ligula=justo&sit=etiam&amet=pretium&eleifend=iaculis&pede=justo&libero=in&quis=hac&orci=habitasse&nullam=platea&molestie=dictumst&nibh=etiam&in=faucibus&lectus=cursus&pellentesque=urna&at=ut&nulla=tellus&suspendisse=nulla&potenti=ut&cras=erat&in=id&purus=mauris&eu=vulputate",
      "lat": 9,
      "lng": -77.86667,
      "position": {
          "lat": 9,
          "lng": -77.86667
      }
  },
  {
      "name": "Industrial Machinery/Components",
      "speaker": "Morgun Lafontaine",
      "location": "Bantry",
      "date": "2023-04-09T08:25:09Z",
      "url": "https://mozilla.org/massa/id/lobortis/convallis.xml?laoreet=ipsum&ut=primis&rhoncus=in&aliquet=faucibus&pulvinar=orci&sed=luctus&nisl=et&nunc=ultrices&rhoncus=posuere&dui=cubilia&vel=curae&sem=mauris&sed=viverra&sagittis=diam&nam=vitae&congue=quam&risus=suspendisse&semper=potenti&porta=nullam&volutpat=porttitor&quam=lacus&pede=at&lobortis=turpis&ligula=donec&sit=posuere&amet=metus&eleifend=vitae&pede=ipsum&libero=aliquam&quis=non&orci=mauris&nullam=morbi&molestie=non&nibh=lectus&in=aliquam&lectus=sit&pellentesque=amet&at=diam&nulla=in&suspendisse=magna&potenti=bibendum&cras=imperdiet&in=nullam&purus=orci&eu=pede&magna=venenatis&vulputate=non&luctus=sodales&cum=sed&sociis=tincidunt&natoque=eu&penatibus=felis&et=fusce&magnis=posuere&dis=felis&parturient=sed&montes=lacus&nascetur=morbi&ridiculus=sem&mus=mauris&vivamus=laoreet&vestibulum=ut&sagittis=rhoncus&sapien=aliquet&cum=pulvinar&sociis=sed&natoque=nisl&penatibus=nunc&et=rhoncus&magnis=dui&dis=vel&parturient=sem&montes=sed&nascetur=sagittis&ridiculus=nam&mus=congue&etiam=risus&vel=semper&augue=porta&vestibulum=volutpat&rutrum=quam&rutrum=pede&neque=lobortis&aenean=ligula",
      "lat": 51.680591,
      "lng": -9.448724,
      "position": {
          "lat": 51.680591,
          "lng": -9.448724
      }
  },
  {
      "name": "Oil & Gas Production",
      "speaker": "Ingemar Gaylord",
      "location": "Sol’-Iletsk",
      "date": "2023-02-11T20:06:14Z",
      "url": "http://deviantart.com/risus.xml?et=sociis&eros=natoque&vestibulum=penatibus&ac=et&est=magnis&lacinia=dis&nisi=parturient&venenatis=montes&tristique=nascetur&fusce=ridiculus&congue=mus&diam=vivamus&id=vestibulum&ornare=sagittis&imperdiet=sapien&sapien=cum&urna=sociis&pretium=natoque&nisl=penatibus&ut=et&volutpat=magnis&sapien=dis&arcu=parturient&sed=montes&augue=nascetur&aliquam=ridiculus&erat=mus&volutpat=etiam&in=vel",
      "lat": 51.1625615,
      "lng": 54.9809527,
      "position": {
          "lat": 51.1625615,
          "lng": 54.9809527
      }
  },
  {
      "name": "Major Pharmaceuticals",
      "speaker": "Tobi Kleinstub",
      "location": "Huaicheng",
      "date": "2023-03-01T20:52:35Z",
      "url": "https://youtube.com/a/ipsum/integer/a.json?vestibulum=donec&eget=vitae&vulputate=nisi&ut=nam&ultrices=ultrices&vel=libero&augue=non&vestibulum=mattis&ante=pulvinar&ipsum=nulla&primis=pede&in=ullamcorper&faucibus=augue&orci=a&luctus=suscipit&et=nulla&ultrices=elit&posuere=ac&cubilia=nulla&curae=sed&donec=vel&pharetra=enim&magna=sit&vestibulum=amet&aliquet=nunc&ultrices=viverra&erat=dapibus&tortor=nulla&sollicitudin=suscipit&mi=ligula&sit=in&amet=lacus&lobortis=curabitur&sapien=at&sapien=ipsum&non=ac&mi=tellus&integer=semper&ac=interdum&neque=mauris",
      "lat": 40.882377,
      "lng": 122.685217,
      "position": {
          "lat": 40.882377,
          "lng": 122.685217
      }
  },
  {
      "name": "Major Pharmaceuticals",
      "speaker": "Phillis Ponde",
      "location": "Asopía",
      "date": "2023-09-23T10:10:44Z",
      "url": "http://hibu.com/vestibulum/ante/ipsum/primis/in/faucibus.jpg?ornare=nam&consequat=congue&lectus=risus&in=semper&est=porta&risus=volutpat&auctor=quam&sed=pede&tristique=lobortis&in=ligula&tempus=sit&sit=amet&amet=eleifend&sem=pede&fusce=libero&consequat=quis&nulla=orci&nisl=nullam&nunc=molestie&nisl=nibh&duis=in&bibendum=lectus&felis=pellentesque&sed=at&interdum=nulla&venenatis=suspendisse&turpis=potenti&enim=cras&blandit=in&mi=purus&in=eu&porttitor=magna&pede=vulputate&justo=luctus&eu=cum&massa=sociis&donec=natoque&dapibus=penatibus&duis=et&at=magnis&velit=dis&eu=parturient&est=montes&congue=nascetur&elementum=ridiculus&in=mus&hac=vivamus&habitasse=vestibulum&platea=sagittis&dictumst=sapien&morbi=cum&vestibulum=sociis&velit=natoque&id=penatibus&pretium=et&iaculis=magnis&diam=dis&erat=parturient&fermentum=montes&justo=nascetur&nec=ridiculus&condimentum=mus&neque=etiam&sapien=vel&placerat=augue&ante=vestibulum",
      "lat": 38.2990998,
      "lng": 23.499468,
      "position": {
          "lat": 38.2990998,
          "lng": 23.499468
      }
  },
  {
      "name": "Major Banks",
      "speaker": "Gwendolen Cudmore",
      "location": "Rahayu",
      "date": "2022-12-03T19:05:02Z",
      "url": "https://wikipedia.org/vulputate.html?risus=ut&semper=massa&porta=quis&volutpat=augue",
      "lat": -6.9586901,
      "lng": 107.5534739,
      "position": {
          "lat": -6.9586901,
          "lng": 107.5534739
      }
  },
  {
      "name": "n/a",
      "speaker": "Keen O'Currine",
      "location": "Trondheim",
      "date": "2023-02-01T06:58:11Z",
      "url": "http://pagesperso-orange.fr/a/pede/posuere/nonummy/integer.png?purus=amet",
      "lat": 63.4400274,
      "lng": 10.4024274,
      "position": {
          "lat": 63.4400274,
          "lng": 10.4024274
      }
  },
  {
      "name": "Department/Specialty Retail Stores",
      "speaker": "Elga Aliberti",
      "location": "Qiaolin",
      "date": "2023-05-17T23:52:28Z",
      "url": "http://un.org/vestibulum/ante/ipsum/primis/in/faucibus/orci.js?vestibulum=scelerisque&ante=quam&ipsum=turpis&primis=adipiscing&in=lorem&faucibus=vitae&orci=mattis&luctus=nibh&et=ligula&ultrices=nec&posuere=sem&cubilia=duis&curae=aliquam&donec=convallis&pharetra=nunc&magna=proin&vestibulum=at&aliquet=turpis&ultrices=a&erat=pede&tortor=posuere&sollicitudin=nonummy&mi=integer&sit=non&amet=velit&lobortis=donec&sapien=diam&sapien=neque&non=vestibulum&mi=eget&integer=vulputate&ac=ut&neque=ultrices&duis=vel&bibendum=augue&morbi=vestibulum&non=ante&quam=ipsum&nec=primis&dui=in&luctus=faucibus&rutrum=orci&nulla=luctus&tellus=et&in=ultrices&sagittis=posuere&dui=cubilia&vel=curae&nisl=donec&duis=pharetra&ac=magna&nibh=vestibulum&fusce=aliquet&lacus=ultrices&purus=erat&aliquet=tortor&at=sollicitudin&feugiat=mi&non=sit&pretium=amet",
      "lat": 29.6970749,
      "lng": 106.6160052,
      "position": {
          "lat": 29.6970749,
          "lng": 106.6160052
      }
  },
  {
      "name": "Computer Software: Prepackaged Software",
      "speaker": "Curtis Baldcock",
      "location": "Yorii",
      "date": "2023-01-10T07:20:43Z",
      "url": "http://weather.com/tortor.json?phasellus=curae&sit=mauris&amet=viverra&erat=diam&nulla=vitae&tempus=quam&vivamus=suspendisse&in=potenti&felis=nullam&eu=porttitor&sapien=lacus&cursus=at&vestibulum=turpis&proin=donec&eu=posuere&mi=metus&nulla=vitae&ac=ipsum&enim=aliquam&in=non&tempor=mauris&turpis=morbi&nec=non&euismod=lectus&scelerisque=aliquam&quam=sit&turpis=amet&adipiscing=diam&lorem=in&vitae=magna&mattis=bibendum&nibh=imperdiet&ligula=nullam&nec=orci&sem=pede&duis=venenatis&aliquam=non&convallis=sodales&nunc=sed&proin=tincidunt&at=eu&turpis=felis&a=fusce&pede=posuere&posuere=felis&nonummy=sed&integer=lacus&non=morbi&velit=sem&donec=mauris&diam=laoreet&neque=ut&vestibulum=rhoncus",
      "lat": 33.426956,
      "lng": 130.6436108,
      "position": {
          "lat": 33.426956,
          "lng": 130.6436108
      }
  },
  {
      "name": "Diversified Commercial Services",
      "speaker": "Melanie Keay",
      "location": "Västerhaninge",
      "date": "2023-05-13T01:54:49Z",
      "url": "http://1und1.de/sapien/urna/pretium/nisl/ut/volutpat/sapien.jsp?dictumst=aliquet&morbi=pulvinar&vestibulum=sed&velit=nisl&id=nunc&pretium=rhoncus&iaculis=dui&diam=vel&erat=sem&fermentum=sed&justo=sagittis&nec=nam&condimentum=congue&neque=risus&sapien=semper&placerat=porta&ante=volutpat&nulla=quam&justo=pede&aliquam=lobortis&quis=ligula&turpis=sit&eget=amet&elit=eleifend&sodales=pede",
      "lat": 59.1575081,
      "lng": 18.1350248,
      "position": {
          "lat": 59.1575081,
          "lng": 18.1350248
      }
  },
  {
      "name": "Semiconductors",
      "speaker": "Erwin Sarjeant",
      "location": "Komoro",
      "date": "2023-07-29T20:42:05Z",
      "url": "http://cornell.edu/orci/luctus/et/ultrices.aspx?lacus=gravida&at=sem&turpis=praesent&donec=id&posuere=massa&metus=id&vitae=nisl&ipsum=venenatis&aliquam=lacinia&non=aenean&mauris=sit&morbi=amet&non=justo&lectus=morbi&aliquam=ut&sit=odio&amet=cras&diam=mi&in=pede&magna=malesuada&bibendum=in&imperdiet=imperdiet",
      "lat": 37.0657211,
      "lng": 136.7827153,
      "position": {
          "lat": 37.0657211,
          "lng": 136.7827153
      }
  },
  {
      "name": "Electric Utilities: Central",
      "speaker": "Job Fiddymont",
      "location": "Mesa",
      "date": "2023-02-07T15:57:18Z",
      "url": "https://spiegel.de/integer/tincidunt/ante.jsp?cras=faucibus&pellentesque=cursus&volutpat=urna&dui=ut&maecenas=tellus&tristique=nulla&est=ut&et=erat",
      "lat": 0.400097,
      "lng": 128.281906,
      "position": {
          "lat": 0.400097,
          "lng": 128.281906
      }
  },
  {
      "name": "n/a",
      "speaker": "Rudolph Kingscott",
      "location": "Kovdor",
      "date": "2023-04-23T20:31:04Z",
      "url": "https://infoseek.co.jp/viverra.jsp?elit=non&proin=mauris&risus=morbi&praesent=non&lectus=lectus&vestibulum=aliquam&quam=sit&sapien=amet&varius=diam&ut=in&blandit=magna&non=bibendum&interdum=imperdiet&in=nullam&ante=orci&vestibulum=pede&ante=venenatis&ipsum=non",
      "lat": 67.6043051,
      "lng": 30.4421656,
      "position": {
          "lat": 67.6043051,
          "lng": 30.4421656
      }
  },
  {
      "name": "Beverages (Production/Distribution)",
      "speaker": "Everett Redolfi",
      "location": "Rumelange",
      "date": "2023-09-30T20:59:42Z",
      "url": "http://histats.com/nibh/in/quis/justo/maecenas/rhoncus/aliquam.json?in=bibendum&felis=felis&donec=sed&semper=interdum&sapien=venenatis&a=turpis&libero=enim&nam=blandit&dui=mi&proin=in&leo=porttitor&odio=pede&porttitor=justo&id=eu&consequat=massa&in=donec&consequat=dapibus&ut=duis&nulla=at&sed=velit&accumsan=eu&felis=est&ut=congue&at=elementum&dolor=in&quis=hac&odio=habitasse",
      "lat": 49.4604602,
      "lng": 6.0280525,
      "position": {
          "lat": 49.4604602,
          "lng": 6.0280525
      }
  },
  {
      "name": "Computer Software: Prepackaged Software",
      "speaker": "Art Knifton",
      "location": "Duzhou",
      "date": "2023-01-29T03:11:48Z",
      "url": "http://spiegel.de/imperdiet/et/commodo/vulputate/justo.html?convallis=vitae&duis=mattis&consequat=nibh&dui=ligula&nec=nec&nisi=sem&volutpat=duis&eleifend=aliquam&donec=convallis&ut=nunc&dolor=proin&morbi=at&vel=turpis&lectus=a&in=pede&quam=posuere&fringilla=nonummy&rhoncus=integer&mauris=non&enim=velit&leo=donec&rhoncus=diam&sed=neque&vestibulum=vestibulum&sit=eget&amet=vulputate&cursus=ut&id=ultrices&turpis=vel&integer=augue&aliquet=vestibulum&massa=ante&id=ipsum&lobortis=primis&convallis=in&tortor=faucibus&risus=orci&dapibus=luctus&augue=et&vel=ultrices&accumsan=posuere&tellus=cubilia",
      "lat": 31.298974,
      "lng": 120.585289,
      "position": {
          "lat": 31.298974,
          "lng": 120.585289
      }
  },
  {
      "name": "n/a",
      "speaker": "Bartholomeus Dalmon",
      "location": "Monte do Outeiro",
      "date": "2022-12-23T11:07:40Z",
      "url": "https://desdev.cn/praesent/id/massa/id/nisl.json?sit=nulla&amet=mollis&turpis=molestie&elementum=lorem&ligula=quisque&vehicula=ut&consequat=erat&morbi=curabitur&a=gravida&ipsum=nisi&integer=at&a=nibh&nibh=in&in=hac&quis=habitasse&justo=platea&maecenas=dictumst&rhoncus=aliquam&aliquam=augue&lacus=quam&morbi=sollicitudin&quis=vitae&tortor=consectetuer&id=eget&nulla=rutrum&ultrices=at&aliquet=lorem&maecenas=integer&leo=tincidunt&odio=ante&condimentum=vel&id=ipsum&luctus=praesent&nec=blandit&molestie=lacinia&sed=erat&justo=vestibulum",
      "lat": 41.2600249,
      "lng": -8.6465086,
      "position": {
          "lat": 41.2600249,
          "lng": -8.6465086
      }
  },
  {
      "name": "Food Distributors",
      "speaker": "Lynn Stanley",
      "location": "Mullagh",
      "date": "2022-12-11T22:29:06Z",
      "url": "https://instagram.com/faucibus/orci/luctus/et.png?diam=mauris&cras=enim&pellentesque=leo&volutpat=rhoncus&dui=sed&maecenas=vestibulum&tristique=sit&est=amet&et=cursus&tempus=id&semper=turpis&est=integer&quam=aliquet&pharetra=massa&magna=id&ac=lobortis&consequat=convallis&metus=tortor&sapien=risus&ut=dapibus&nunc=augue&vestibulum=vel&ante=accumsan&ipsum=tellus&primis=nisi&in=eu&faucibus=orci&orci=mauris&luctus=lacinia&et=sapien&ultrices=quis&posuere=libero&cubilia=nullam&curae=sit&mauris=amet&viverra=turpis&diam=elementum&vitae=ligula&quam=vehicula&suspendisse=consequat&potenti=morbi&nullam=a&porttitor=ipsum&lacus=integer&at=a&turpis=nibh&donec=in&posuere=quis&metus=justo&vitae=maecenas&ipsum=rhoncus&aliquam=aliquam&non=lacus&mauris=morbi&morbi=quis&non=tortor&lectus=id&aliquam=nulla&sit=ultrices&amet=aliquet&diam=maecenas&in=leo&magna=odio&bibendum=condimentum&imperdiet=id",
      "lat": 51.8895954,
      "lng": -8.4977746,
      "position": {
          "lat": 51.8895954,
          "lng": -8.4977746
      }
  },
  {
      "name": "Restaurants",
      "speaker": "Madlin Sine",
      "location": "Maluko",
      "date": "2023-11-07T18:10:54Z",
      "url": "http://imgur.com/habitasse/platea/dictumst/etiam/faucibus/cursus/urna.png?platea=erat&dictumst=vestibulum&etiam=sed&faucibus=magna&cursus=at&urna=nunc&ut=commodo&tellus=placerat&nulla=praesent&ut=blandit&erat=nam&id=nulla&mauris=integer&vulputate=pede&elementum=justo&nullam=lacinia&varius=eget&nulla=tincidunt&facilisi=eget&cras=tempus&non=vel",
      "lat": 8.544642,
      "lng": 124.961672,
      "position": {
          "lat": 8.544642,
          "lng": 124.961672
      }
  },
  {
      "name": "EDP Services",
      "speaker": "Ariella Eagger",
      "location": "Les Clayes-sous-Bois",
      "date": "2023-06-11T19:14:04Z",
      "url": "https://fotki.com/at/feugiat/non.aspx?porta=odio&volutpat=odio&quam=elementum&pede=eu&lobortis=interdum&ligula=eu&sit=tincidunt&amet=in&eleifend=leo&pede=maecenas&libero=pulvinar&quis=lobortis&orci=est&nullam=phasellus&molestie=sit&nibh=amet&in=erat&lectus=nulla&pellentesque=tempus&at=vivamus&nulla=in&suspendisse=felis&potenti=eu&cras=sapien&in=cursus&purus=vestibulum&eu=proin&magna=eu&vulputate=mi&luctus=nulla&cum=ac&sociis=enim&natoque=in&penatibus=tempor&et=turpis&magnis=nec&dis=euismod&parturient=scelerisque&montes=quam&nascetur=turpis&ridiculus=adipiscing&mus=lorem&vivamus=vitae&vestibulum=mattis&sagittis=nibh&sapien=ligula&cum=nec&sociis=sem&natoque=duis&penatibus=aliquam&et=convallis&magnis=nunc&dis=proin&parturient=at&montes=turpis&nascetur=a&ridiculus=pede&mus=posuere&etiam=nonummy&vel=integer&augue=non&vestibulum=velit&rutrum=donec&rutrum=diam&neque=neque&aenean=vestibulum",
      "lat": 48.8276508,
      "lng": 1.9697936,
      "position": {
          "lat": 48.8276508,
          "lng": 1.9697936
      }
  },
  {
      "name": "n/a",
      "speaker": "Minetta Laneham",
      "location": "Seroa",
      "date": "2023-10-31T04:17:06Z",
      "url": "https://quantcast.com/aliquet/massa.xml?odio=amet&cras=eros&mi=suspendisse&pede=accumsan&malesuada=tortor&in=quis&imperdiet=turpis&et=sed&commodo=ante&vulputate=vivamus&justo=tortor&in=duis&blandit=mattis&ultrices=egestas&enim=metus&lorem=aenean&ipsum=fermentum&dolor=donec&sit=ut&amet=mauris&consectetuer=eget&adipiscing=massa&elit=tempor&proin=convallis&interdum=nulla&mauris=neque&non=libero&ligula=convallis&pellentesque=eget&ultrices=eleifend&phasellus=luctus&id=ultricies&sapien=eu&in=nibh&sapien=quisque&iaculis=id&congue=justo&vivamus=sit&metus=amet&arcu=sapien&adipiscing=dignissim&molestie=vestibulum&hendrerit=vestibulum&at=ante&vulputate=ipsum&vitae=primis&nisl=in&aenean=faucibus&lectus=orci&pellentesque=luctus&eget=et&nunc=ultrices&donec=posuere&quis=cubilia&orci=curae&eget=nulla&orci=dapibus&vehicula=dolor&condimentum=vel&curabitur=est&in=donec&libero=odio&ut=justo&massa=sollicitudin&volutpat=ut&convallis=suscipit&morbi=a&odio=feugiat&odio=et&elementum=eros&eu=vestibulum&interdum=ac",
      "lat": 41.2606416,
      "lng": -8.4347858,
      "position": {
          "lat": 41.2606416,
          "lng": -8.4347858
      }
  },
  {
      "name": "Natural Gas Distribution",
      "speaker": "Obed Jacobsson",
      "location": "Cauayan",
      "date": "2022-12-25T00:27:48Z",
      "url": "https://drupal.org/adipiscing/lorem/vitae/mattis/nibh/ligula/nec.html?elit=in&proin=sapien&risus=iaculis&praesent=congue&lectus=vivamus&vestibulum=metus&quam=arcu&sapien=adipiscing&varius=molestie&ut=hendrerit&blandit=at&non=vulputate&interdum=vitae&in=nisl&ante=aenean&vestibulum=lectus&ante=pellentesque&ipsum=eget&primis=nunc&in=donec&faucibus=quis&orci=orci&luctus=eget&et=orci&ultrices=vehicula&posuere=condimentum&cubilia=curabitur&curae=in&duis=libero&faucibus=ut&accumsan=massa&odio=volutpat&curabitur=convallis&convallis=morbi&duis=odio&consequat=odio&dui=elementum&nec=eu&nisi=interdum&volutpat=eu&eleifend=tincidunt&donec=in&ut=leo&dolor=maecenas&morbi=pulvinar&vel=lobortis&lectus=est&in=phasellus&quam=sit&fringilla=amet&rhoncus=erat&mauris=nulla&enim=tempus&leo=vivamus&rhoncus=in&sed=felis&vestibulum=eu&sit=sapien&amet=cursus&cursus=vestibulum&id=proin&turpis=eu&integer=mi&aliquet=nulla&massa=ac&id=enim&lobortis=in&convallis=tempor&tortor=turpis&risus=nec&dapibus=euismod&augue=scelerisque&vel=quam&accumsan=turpis&tellus=adipiscing&nisi=lorem&eu=vitae&orci=mattis&mauris=nibh&lacinia=ligula&sapien=nec&quis=sem&libero=duis&nullam=aliquam&sit=convallis&amet=nunc&turpis=proin&elementum=at&ligula=turpis&vehicula=a&consequat=pede&morbi=posuere&a=nonummy&ipsum=integer&integer=non&a=velit&nibh=donec&in=diam",
      "lat": 9.9411601,
      "lng": 122.5691915,
      "position": {
          "lat": 9.9411601,
          "lng": 122.5691915
      }
  },
  {
      "name": "Real Estate Investment Trusts",
      "speaker": "Daryl Rudsdale",
      "location": "Saddina",
      "date": "2023-07-06T20:30:58Z",
      "url": "http://stanford.edu/lacus/morbi.xml?ultrices=mauris&posuere=vulputate&cubilia=elementum&curae=nullam&duis=varius&faucibus=nulla&accumsan=facilisi&odio=cras&curabitur=non&convallis=velit&duis=nec&consequat=nisi&dui=vulputate&nec=nonummy&nisi=maecenas&volutpat=tincidunt&eleifend=lacus&donec=at&ut=velit&dolor=vivamus&morbi=vel&vel=nulla&lectus=eget&in=eros&quam=elementum&fringilla=pellentesque&rhoncus=quisque&mauris=porta&enim=volutpat&leo=erat&rhoncus=quisque&sed=erat&vestibulum=eros&sit=viverra&amet=eget&cursus=congue&id=eget&turpis=semper&integer=rutrum&aliquet=nulla&massa=nunc&id=purus&lobortis=phasellus&convallis=in&tortor=felis&risus=donec&dapibus=semper&augue=sapien&vel=a&accumsan=libero&tellus=nam&nisi=dui",
      "lat": 35.6206812,
      "lng": -5.4519,
      "position": {
          "lat": 35.6206812,
          "lng": -5.4519
      }
  },
  {
      "name": "Steel/Iron Ore",
      "speaker": "Moss Loadsman",
      "location": "Olszówka",
      "date": "2023-08-25T03:24:22Z",
      "url": "https://tumblr.com/hac/habitasse/platea/dictumst/etiam.png?quam=iaculis&nec=diam&dui=erat&luctus=fermentum&rutrum=justo&nulla=nec&tellus=condimentum&in=neque&sagittis=sapien&dui=placerat&vel=ante&nisl=nulla&duis=justo&ac=aliquam&nibh=quis&fusce=turpis&lacus=eget&purus=elit&aliquet=sodales&at=scelerisque&feugiat=mauris&non=sit&pretium=amet&quis=eros&lectus=suspendisse&suspendisse=accumsan&potenti=tortor&in=quis&eleifend=turpis&quam=sed&a=ante&odio=vivamus&in=tortor&hac=duis&habitasse=mattis&platea=egestas&dictumst=metus&maecenas=aenean&ut=fermentum&massa=donec&quis=ut&augue=mauris&luctus=eget&tincidunt=massa&nulla=tempor&mollis=convallis&molestie=nulla&lorem=neque&quisque=libero&ut=convallis&erat=eget&curabitur=eleifend&gravida=luctus&nisi=ultricies&at=eu&nibh=nibh&in=quisque&hac=id&habitasse=justo&platea=sit&dictumst=amet&aliquam=sapien&augue=dignissim&quam=vestibulum&sollicitudin=vestibulum",
      "lat": 52.1899235,
      "lng": 18.8632124,
      "position": {
          "lat": 52.1899235,
          "lng": 18.8632124
      }
  },
  {
      "name": "Electric Utilities: Central",
      "speaker": "Bethena Goncalo",
      "location": "Hod HaSharon",
      "date": "2023-04-17T00:19:57Z",
      "url": "http://booking.com/sodales/sed/tincidunt.jsp?turpis=ut&eget=suscipit&elit=a&sodales=feugiat&scelerisque=et&mauris=eros&sit=vestibulum&amet=ac&eros=est&suspendisse=lacinia&accumsan=nisi&tortor=venenatis&quis=tristique&turpis=fusce&sed=congue&ante=diam&vivamus=id&tortor=ornare&duis=imperdiet&mattis=sapien&egestas=urna&metus=pretium&aenean=nisl&fermentum=ut&donec=volutpat&ut=sapien&mauris=arcu&eget=sed&massa=augue&tempor=aliquam&convallis=erat&nulla=volutpat&neque=in&libero=congue&convallis=etiam&eget=justo&eleifend=etiam&luctus=pretium&ultricies=iaculis&eu=justo&nibh=in&quisque=hac&id=habitasse&justo=platea&sit=dictumst&amet=etiam&sapien=faucibus&dignissim=cursus&vestibulum=urna&vestibulum=ut&ante=tellus&ipsum=nulla&primis=ut&in=erat&faucibus=id&orci=mauris&luctus=vulputate&et=elementum&ultrices=nullam&posuere=varius&cubilia=nulla&curae=facilisi&nulla=cras&dapibus=non&dolor=velit",
      "lat": 32.149961,
      "lng": 34.8838788,
      "position": {
          "lat": 32.149961,
          "lng": 34.8838788
      }
  },
  {
      "name": "Other Consumer Services",
      "speaker": "Cyril Hancell",
      "location": "Wetzlar",
      "date": "2023-09-16T22:05:55Z",
      "url": "http://360.cn/ultrices/vel.aspx?laoreet=aliquet&ut=pulvinar&rhoncus=sed&aliquet=nisl&pulvinar=nunc&sed=rhoncus&nisl=dui&nunc=vel&rhoncus=sem&dui=sed&vel=sagittis&sem=nam&sed=congue&sagittis=risus&nam=semper&congue=porta&risus=volutpat&semper=quam&porta=pede&volutpat=lobortis&quam=ligula&pede=sit&lobortis=amet&ligula=eleifend&sit=pede&amet=libero&eleifend=quis&pede=orci&libero=nullam&quis=molestie&orci=nibh&nullam=in&molestie=lectus&nibh=pellentesque&in=at&lectus=nulla&pellentesque=suspendisse&at=potenti&nulla=cras&suspendisse=in&potenti=purus&cras=eu&in=magna&purus=vulputate&eu=luctus&magna=cum&vulputate=sociis&luctus=natoque&cum=penatibus&sociis=et&natoque=magnis&penatibus=dis&et=parturient&magnis=montes&dis=nascetur&parturient=ridiculus&montes=mus&nascetur=vivamus&ridiculus=vestibulum&mus=sagittis&vivamus=sapien&vestibulum=cum&sagittis=sociis&sapien=natoque&cum=penatibus&sociis=et&natoque=magnis&penatibus=dis&et=parturient&magnis=montes&dis=nascetur&parturient=ridiculus&montes=mus&nascetur=etiam&ridiculus=vel&mus=augue&etiam=vestibulum&vel=rutrum&augue=rutrum&vestibulum=neque&rutrum=aenean&rutrum=auctor&neque=gravida&aenean=sem&auctor=praesent",
      "lat": 50.5487974,
      "lng": 8.5763725,
      "position": {
          "lat": 50.5487974,
          "lng": 8.5763725
      }
  },
  {
      "name": "n/a",
      "speaker": "Kellina Treske",
      "location": "Banī Suhaylā",
      "date": "2023-04-18T12:40:36Z",
      "url": "http://amazon.com/nec.xml?luctus=posuere&rutrum=cubilia&nulla=curae&tellus=nulla&in=dapibus&sagittis=dolor&dui=vel&vel=est&nisl=donec&duis=odio&ac=justo&nibh=sollicitudin&fusce=ut&lacus=suscipit&purus=a&aliquet=feugiat&at=et&feugiat=eros&non=vestibulum&pretium=ac&quis=est&lectus=lacinia&suspendisse=nisi&potenti=venenatis&in=tristique&eleifend=fusce&quam=congue&a=diam&odio=id&in=ornare&hac=imperdiet&habitasse=sapien&platea=urna&dictumst=pretium&maecenas=nisl",
      "lat": 31.34337,
      "lng": 34.32337,
      "position": {
          "lat": 31.34337,
          "lng": 34.32337
      }
  },
  {
      "name": "Industrial Machinery/Components",
      "speaker": "Damara Hufton",
      "location": "Zhovti Vody",
      "date": "2023-02-02T18:15:53Z",
      "url": "https://cyberchimps.com/aliquet/pulvinar.xml?ante=et&vestibulum=ultrices&ante=posuere&ipsum=cubilia&primis=curae&in=nulla&faucibus=dapibus&orci=dolor&luctus=vel&et=est&ultrices=donec&posuere=odio&cubilia=justo&curae=sollicitudin&duis=ut&faucibus=suscipit&accumsan=a&odio=feugiat&curabitur=et&convallis=eros&duis=vestibulum&consequat=ac&dui=est&nec=lacinia&nisi=nisi&volutpat=venenatis&eleifend=tristique&donec=fusce&ut=congue&dolor=diam&morbi=id&vel=ornare&lectus=imperdiet&in=sapien&quam=urna&fringilla=pretium&rhoncus=nisl&mauris=ut&enim=volutpat&leo=sapien&rhoncus=arcu&sed=sed&vestibulum=augue&sit=aliquam&amet=erat&cursus=volutpat&id=in&turpis=congue&integer=etiam&aliquet=justo&massa=etiam&id=pretium&lobortis=iaculis&convallis=justo&tortor=in&risus=hac",
      "lat": 48.3441198,
      "lng": 33.5244801,
      "position": {
          "lat": 48.3441198,
          "lng": 33.5244801
      }
  },
  {
      "name": "Oil & Gas Production",
      "speaker": "Robby Rolls",
      "location": "Thị Trấn Na Sầm",
      "date": "2023-10-08T08:56:22Z",
      "url": "http://quantcast.com/id/ornare/imperdiet.js?libero=luctus&convallis=cum&eget=sociis&eleifend=natoque&luctus=penatibus&ultricies=et&eu=magnis&nibh=dis&quisque=parturient&id=montes&justo=nascetur&sit=ridiculus&amet=mus&sapien=vivamus&dignissim=vestibulum&vestibulum=sagittis&vestibulum=sapien&ante=cum&ipsum=sociis&primis=natoque&in=penatibus&faucibus=et&orci=magnis&luctus=dis&et=parturient&ultrices=montes&posuere=nascetur&cubilia=ridiculus&curae=mus&nulla=etiam&dapibus=vel&dolor=augue&vel=vestibulum&est=rutrum&donec=rutrum&odio=neque&justo=aenean&sollicitudin=auctor&ut=gravida&suscipit=sem&a=praesent&feugiat=id&et=massa&eros=id&vestibulum=nisl&ac=venenatis&est=lacinia&lacinia=aenean&nisi=sit&venenatis=amet&tristique=justo&fusce=morbi&congue=ut&diam=odio&id=cras&ornare=mi&imperdiet=pede&sapien=malesuada&urna=in&pretium=imperdiet&nisl=et&ut=commodo&volutpat=vulputate&sapien=justo&arcu=in&sed=blandit",
      "lat": 22.0557244,
      "lng": 106.615868,
      "position": {
          "lat": 22.0557244,
          "lng": 106.615868
      }
  },
  {
      "name": "n/a",
      "speaker": "Clayborne Manuel",
      "location": "Mata Grande",
      "date": "2023-09-28T18:58:36Z",
      "url": "http://amazon.co.jp/sit/amet/sem/fusce/consequat/nulla/nisl.aspx?condimentum=interdum&id=eu&luctus=tincidunt&nec=in&molestie=leo&sed=maecenas&justo=pulvinar&pellentesque=lobortis&viverra=est&pede=phasellus&ac=sit&diam=amet&cras=erat&pellentesque=nulla&volutpat=tempus&dui=vivamus&maecenas=in&tristique=felis&est=eu&et=sapien&tempus=cursus&semper=vestibulum&est=proin&quam=eu&pharetra=mi&magna=nulla&ac=ac&consequat=enim&metus=in&sapien=tempor&ut=turpis&nunc=nec&vestibulum=euismod",
      "lat": -9.1462164,
      "lng": -37.8188445,
      "position": {
          "lat": -9.1462164,
          "lng": -37.8188445
      }
  },
  {
      "name": "Major Pharmaceuticals",
      "speaker": "Carson Olech",
      "location": "Ilihan",
      "date": "2023-08-23T11:57:52Z",
      "url": "http://shinystat.com/nulla/nisl/nunc/nisl/duis.jpg?vel=luctus&nisl=tincidunt&duis=nulla&ac=mollis&nibh=molestie&fusce=lorem&lacus=quisque&purus=ut&aliquet=erat&at=curabitur&feugiat=gravida&non=nisi&pretium=at&quis=nibh&lectus=in&suspendisse=hac&potenti=habitasse&in=platea&eleifend=dictumst&quam=aliquam&a=augue&odio=quam&in=sollicitudin&hac=vitae&habitasse=consectetuer&platea=eget&dictumst=rutrum&maecenas=at&ut=lorem&massa=integer&quis=tincidunt&augue=ante&luctus=vel&tincidunt=ipsum&nulla=praesent&mollis=blandit&molestie=lacinia&lorem=erat&quisque=vestibulum&ut=sed&erat=magna&curabitur=at&gravida=nunc&nisi=commodo&at=placerat&nibh=praesent&in=blandit&hac=nam&habitasse=nulla&platea=integer&dictumst=pede&aliquam=justo&augue=lacinia&quam=eget&sollicitudin=tincidunt&vitae=eget&consectetuer=tempus&eget=vel&rutrum=pede&at=morbi&lorem=porttitor&integer=lorem&tincidunt=id&ante=ligula&vel=suspendisse&ipsum=ornare&praesent=consequat&blandit=lectus&lacinia=in&erat=est&vestibulum=risus&sed=auctor&magna=sed&at=tristique&nunc=in&commodo=tempus&placerat=sit&praesent=amet",
      "lat": 14.6425547,
      "lng": 121.010151,
      "position": {
          "lat": 14.6425547,
          "lng": 121.010151
      }
  },
  {
      "name": "Military/Government/Technical",
      "speaker": "Kristan Bickerstaffe",
      "location": "Tiaong",
      "date": "2022-12-12T11:21:33Z",
      "url": "https://jiathis.com/pulvinar/sed/nisl.jsp?et=morbi&commodo=a&vulputate=ipsum&justo=integer&in=a&blandit=nibh&ultrices=in&enim=quis&lorem=justo&ipsum=maecenas&dolor=rhoncus&sit=aliquam&amet=lacus&consectetuer=morbi&adipiscing=quis&elit=tortor&proin=id&interdum=nulla&mauris=ultrices&non=aliquet&ligula=maecenas&pellentesque=leo&ultrices=odio&phasellus=condimentum&id=id&sapien=luctus&in=nec&sapien=molestie&iaculis=sed&congue=justo&vivamus=pellentesque&metus=viverra&arcu=pede&adipiscing=ac&molestie=diam&hendrerit=cras&at=pellentesque&vulputate=volutpat&vitae=dui&nisl=maecenas&aenean=tristique&lectus=est&pellentesque=et&eget=tempus&nunc=semper&donec=est&quis=quam&orci=pharetra&eget=magna&orci=ac&vehicula=consequat&condimentum=metus&curabitur=sapien&in=ut&libero=nunc&ut=vestibulum&massa=ante&volutpat=ipsum&convallis=primis&morbi=in&odio=faucibus&odio=orci&elementum=luctus&eu=et&interdum=ultrices&eu=posuere&tincidunt=cubilia&in=curae&leo=mauris",
      "lat": 13.9434827,
      "lng": 121.3691335,
      "position": {
          "lat": 13.9434827,
          "lng": 121.3691335
      }
  },
  {
      "name": "Auto Parts:O.E.M.",
      "speaker": "Charline Blanchflower",
      "location": "Pātan",
      "date": "2023-03-02T15:35:38Z",
      "url": "https://theatlantic.com/leo/odio/condimentum/id/luctus/nec/molestie.png?magna=euismod&bibendum=scelerisque&imperdiet=quam&nullam=turpis&orci=adipiscing&pede=lorem&venenatis=vitae&non=mattis&sodales=nibh&sed=ligula&tincidunt=nec&eu=sem&felis=duis&fusce=aliquam&posuere=convallis&felis=nunc&sed=proin&lacus=at&morbi=turpis&sem=a&mauris=pede&laoreet=posuere&ut=nonummy&rhoncus=integer&aliquet=non&pulvinar=velit&sed=donec&nisl=diam&nunc=neque&rhoncus=vestibulum&dui=eget&vel=vulputate&sem=ut&sed=ultrices&sagittis=vel&nam=augue&congue=vestibulum&risus=ante&semper=ipsum&porta=primis&volutpat=in&quam=faucibus&pede=orci&lobortis=luctus&ligula=et&sit=ultrices&amet=posuere&eleifend=cubilia&pede=curae&libero=donec&quis=pharetra&orci=magna&nullam=vestibulum&molestie=aliquet&nibh=ultrices&in=erat&lectus=tortor&pellentesque=sollicitudin&at=mi&nulla=sit&suspendisse=amet&potenti=lobortis&cras=sapien&in=sapien&purus=non&eu=mi",
      "lat": 27.6644011,
      "lng": 85.3187914,
      "position": {
          "lat": 27.6644011,
          "lng": 85.3187914
      }
  },
  {
      "name": "n/a",
      "speaker": "Delores Bartosinski",
      "location": "Lolak",
      "date": "2023-02-16T12:07:27Z",
      "url": "http://xinhuanet.com/ligula/vehicula/consequat/morbi/a/ipsum.jsp?nisl=mauris&venenatis=non&lacinia=ligula&aenean=pellentesque&sit=ultrices&amet=phasellus&justo=id&morbi=sapien&ut=in&odio=sapien&cras=iaculis&mi=congue&pede=vivamus&malesuada=metus&in=arcu&imperdiet=adipiscing&et=molestie&commodo=hendrerit",
      "lat": 0.881124,
      "lng": 124.014,
      "position": {
          "lat": 0.881124,
          "lng": 124.014
      }
  },
  {
      "name": "Semiconductors",
      "speaker": "Zach Rosenblatt",
      "location": "Bal Chirāgh",
      "date": "2023-09-22T04:27:20Z",
      "url": "https://sourceforge.net/vestibulum.aspx?volutpat=eu&quam=sapien&pede=cursus&lobortis=vestibulum&ligula=proin&sit=eu&amet=mi&eleifend=nulla&pede=ac&libero=enim&quis=in&orci=tempor&nullam=turpis&molestie=nec&nibh=euismod&in=scelerisque&lectus=quam&pellentesque=turpis&at=adipiscing&nulla=lorem&suspendisse=vitae&potenti=mattis&cras=nibh&in=ligula&purus=nec&eu=sem&magna=duis&vulputate=aliquam&luctus=convallis&cum=nunc&sociis=proin&natoque=at&penatibus=turpis&et=a&magnis=pede&dis=posuere&parturient=nonummy&montes=integer&nascetur=non&ridiculus=velit&mus=donec&vivamus=diam&vestibulum=neque&sagittis=vestibulum&sapien=eget&cum=vulputate&sociis=ut&natoque=ultrices&penatibus=vel&et=augue&magnis=vestibulum&dis=ante&parturient=ipsum&montes=primis&nascetur=in&ridiculus=faucibus&mus=orci&etiam=luctus&vel=et&augue=ultrices",
      "lat": 35.84026,
      "lng": 65.2309,
      "position": {
          "lat": 35.84026,
          "lng": 65.2309
      }
  },
  {
      "name": "Investment Bankers/Brokers/Service",
      "speaker": "Cathrin Sibun",
      "location": "Zhangyelu",
      "date": "2023-06-05T06:25:17Z",
      "url": "http://bizjournals.com/ut/nunc/vestibulum/ante.json?curabitur=eget&convallis=elit&duis=sodales&consequat=scelerisque&dui=mauris&nec=sit&nisi=amet&volutpat=eros&eleifend=suspendisse&donec=accumsan&ut=tortor&dolor=quis&morbi=turpis&vel=sed&lectus=ante&in=vivamus&quam=tortor&fringilla=duis&rhoncus=mattis&mauris=egestas&enim=metus&leo=aenean&rhoncus=fermentum&sed=donec&vestibulum=ut&sit=mauris&amet=eget&cursus=massa&id=tempor&turpis=convallis&integer=nulla&aliquet=neque&massa=libero&id=convallis&lobortis=eget&convallis=eleifend&tortor=luctus&risus=ultricies&dapibus=eu&augue=nibh&vel=quisque&accumsan=id&tellus=justo&nisi=sit&eu=amet&orci=sapien&mauris=dignissim",
      "lat": 38.925875,
      "lng": 100.449818,
      "position": {
          "lat": 38.925875,
          "lng": 100.449818
      }
  },
  {
      "name": "Semiconductors",
      "speaker": "Arie Simonich",
      "location": "Redon",
      "date": "2023-07-16T03:38:04Z",
      "url": "http://ed.gov/feugiat/et/eros/vestibulum/ac/est/lacinia.jsp?hac=ligula&habitasse=sit&platea=amet&dictumst=eleifend&morbi=pede&vestibulum=libero&velit=quis&id=orci&pretium=nullam&iaculis=molestie&diam=nibh&erat=in&fermentum=lectus&justo=pellentesque&nec=at&condimentum=nulla&neque=suspendisse&sapien=potenti&placerat=cras&ante=in&nulla=purus&justo=eu&aliquam=magna&quis=vulputate&turpis=luctus&eget=cum&elit=sociis&sodales=natoque&scelerisque=penatibus&mauris=et&sit=magnis&amet=dis&eros=parturient&suspendisse=montes&accumsan=nascetur&tortor=ridiculus&quis=mus&turpis=vivamus&sed=vestibulum&ante=sagittis&vivamus=sapien&tortor=cum&duis=sociis&mattis=natoque&egestas=penatibus&metus=et&aenean=magnis&fermentum=dis&donec=parturient&ut=montes&mauris=nascetur&eget=ridiculus&massa=mus&tempor=etiam&convallis=vel&nulla=augue&neque=vestibulum&libero=rutrum&convallis=rutrum&eget=neque&eleifend=aenean&luctus=auctor&ultricies=gravida&eu=sem&nibh=praesent&quisque=id&id=massa&justo=id&sit=nisl&amet=venenatis&sapien=lacinia&dignissim=aenean&vestibulum=sit&vestibulum=amet&ante=justo&ipsum=morbi&primis=ut&in=odio&faucibus=cras&orci=mi&luctus=pede&et=malesuada&ultrices=in&posuere=imperdiet&cubilia=et&curae=commodo&nulla=vulputate&dapibus=justo&dolor=in&vel=blandit&est=ultrices&donec=enim&odio=lorem&justo=ipsum&sollicitudin=dolor&ut=sit&suscipit=amet&a=consectetuer",
      "lat": 47.6519866,
      "lng": -2.0882566,
      "position": {
          "lat": 47.6519866,
          "lng": -2.0882566
      }
  },
  {
      "name": "Medical/Dental Instruments",
      "speaker": "Gustav Quaife",
      "location": "Lae",
      "date": "2023-08-30T01:10:04Z",
      "url": "https://clickbank.net/egestas/metus/aenean/fermentum.js?proin=quisque&risus=porta&praesent=volutpat&lectus=erat&vestibulum=quisque&quam=erat&sapien=eros&varius=viverra&ut=eget",
      "lat": -6.7155252,
      "lng": 146.999905,
      "position": {
          "lat": -6.7155252,
          "lng": 146.999905
      }
  },
  {
      "name": "Auto Parts:O.E.M.",
      "speaker": "Grier Habershon",
      "location": "Cascavel",
      "date": "2023-01-05T15:42:43Z",
      "url": "http://imdb.com/vestibulum/proin/eu/mi/nulla/ac/enim.aspx?mus=interdum&vivamus=in&vestibulum=ante&sagittis=vestibulum&sapien=ante&cum=ipsum&sociis=primis&natoque=in&penatibus=faucibus&et=orci&magnis=luctus&dis=et&parturient=ultrices&montes=posuere&nascetur=cubilia&ridiculus=curae&mus=duis&etiam=faucibus&vel=accumsan&augue=odio&vestibulum=curabitur&rutrum=convallis&rutrum=duis&neque=consequat&aenean=dui&auctor=nec&gravida=nisi&sem=volutpat&praesent=eleifend&id=donec&massa=ut&id=dolor&nisl=morbi&venenatis=vel&lacinia=lectus&aenean=in&sit=quam&amet=fringilla&justo=rhoncus&morbi=mauris&ut=enim&odio=leo&cras=rhoncus&mi=sed&pede=vestibulum&malesuada=sit&in=amet&imperdiet=cursus&et=id&commodo=turpis&vulputate=integer&justo=aliquet&in=massa&blandit=id&ultrices=lobortis&enim=convallis&lorem=tortor&ipsum=risus&dolor=dapibus&sit=augue&amet=vel&consectetuer=accumsan&adipiscing=tellus&elit=nisi&proin=eu&interdum=orci&mauris=mauris",
      "lat": -24.9288708,
      "lng": -53.4392535,
      "position": {
          "lat": -24.9288708,
          "lng": -53.4392535
      }
  },
  {
      "name": "Computer Software: Prepackaged Software",
      "speaker": "Rowland Edridge",
      "location": "Shangyang",
      "date": "2023-01-14T06:21:13Z",
      "url": "https://rambler.ru/tempor.png?magna=turpis&bibendum=integer&imperdiet=aliquet&nullam=massa&orci=id&pede=lobortis&venenatis=convallis&non=tortor&sodales=risus&sed=dapibus&tincidunt=augue&eu=vel&felis=accumsan&fusce=tellus&posuere=nisi&felis=eu&sed=orci&lacus=mauris&morbi=lacinia&sem=sapien&mauris=quis&laoreet=libero&ut=nullam&rhoncus=sit&aliquet=amet&pulvinar=turpis&sed=elementum&nisl=ligula&nunc=vehicula&rhoncus=consequat&dui=morbi&vel=a&sem=ipsum&sed=integer&sagittis=a&nam=nibh&congue=in&risus=quis&semper=justo&porta=maecenas&volutpat=rhoncus&quam=aliquam&pede=lacus&lobortis=morbi&ligula=quis&sit=tortor&amet=id&eleifend=nulla&pede=ultrices&libero=aliquet&quis=maecenas&orci=leo&nullam=odio&molestie=condimentum&nibh=id&in=luctus&lectus=nec&pellentesque=molestie&at=sed&nulla=justo&suspendisse=pellentesque&potenti=viverra&cras=pede",
      "lat": 34.771604,
      "lng": 111.202503,
      "position": {
          "lat": 34.771604,
          "lng": 111.202503
      }
  },
  {
      "name": "Major Banks",
      "speaker": "Josefa Sansbury",
      "location": "Pasirpanjang",
      "date": "2023-08-31T08:52:28Z",
      "url": "http://nsw.gov.au/congue.js?eget=felis&elit=eu&sodales=sapien&scelerisque=cursus&mauris=vestibulum&sit=proin&amet=eu&eros=mi&suspendisse=nulla&accumsan=ac&tortor=enim&quis=in&turpis=tempor&sed=turpis&ante=nec&vivamus=euismod&tortor=scelerisque&duis=quam&mattis=turpis&egestas=adipiscing&metus=lorem&aenean=vitae&fermentum=mattis&donec=nibh&ut=ligula&mauris=nec&eget=sem&massa=duis&tempor=aliquam&convallis=convallis&nulla=nunc&neque=proin&libero=at&convallis=turpis&eget=a&eleifend=pede&luctus=posuere&ultricies=nonummy&eu=integer&nibh=non&quisque=velit&id=donec&justo=diam&sit=neque&amet=vestibulum&sapien=eget&dignissim=vulputate&vestibulum=ut&vestibulum=ultrices&ante=vel&ipsum=augue&primis=vestibulum&in=ante&faucibus=ipsum&orci=primis&luctus=in&et=faucibus&ultrices=orci&posuere=luctus&cubilia=et&curae=ultrices&nulla=posuere&dapibus=cubilia&dolor=curae&vel=donec&est=pharetra&donec=magna&odio=vestibulum&justo=aliquet&sollicitudin=ultrices&ut=erat&suscipit=tortor&a=sollicitudin&feugiat=mi&et=sit&eros=amet&vestibulum=lobortis&ac=sapien&est=sapien&lacinia=non",
      "lat": 0.845865,
      "lng": 108.8796091,
      "position": {
          "lat": 0.845865,
          "lng": 108.8796091
      }
  },
  {
      "name": "Movies/Entertainment",
      "speaker": "Pennie Karby",
      "location": "Yinji",
      "date": "2023-04-18T17:24:43Z",
      "url": "http://google.co.uk/eu/magna/vulputate/luctus/cum/sociis.jsp?dolor=justo&quis=etiam&odio=pretium&consequat=iaculis&varius=justo&integer=in&ac=hac&leo=habitasse&pellentesque=platea&ultrices=dictumst&mattis=etiam&odio=faucibus&donec=cursus&vitae=urna",
      "lat": 36.902846,
      "lng": 116.331293,
      "position": {
          "lat": 36.902846,
          "lng": 116.331293
      }
  },
  {
      "name": "Electrical Products",
      "speaker": "Lexis Acors",
      "location": "Rodatychi",
      "date": "2023-05-20T16:07:26Z",
      "url": "http://mediafire.com/vestibulum/ac/est/lacinia.jpg?venenatis=maecenas&turpis=ut&enim=massa&blandit=quis&mi=augue&in=luctus&porttitor=tincidunt&pede=nulla&justo=mollis&eu=molestie&massa=lorem&donec=quisque&dapibus=ut&duis=erat&at=curabitur&velit=gravida&eu=nisi&est=at&congue=nibh&elementum=in&in=hac&hac=habitasse&habitasse=platea&platea=dictumst&dictumst=aliquam&morbi=augue&vestibulum=quam&velit=sollicitudin&id=vitae&pretium=consectetuer&iaculis=eget&diam=rutrum&erat=at&fermentum=lorem&justo=integer&nec=tincidunt&condimentum=ante&neque=vel&sapien=ipsum&placerat=praesent&ante=blandit&nulla=lacinia&justo=erat&aliquam=vestibulum&quis=sed&turpis=magna&eget=at&elit=nunc&sodales=commodo&scelerisque=placerat&mauris=praesent&sit=blandit&amet=nam&eros=nulla&suspendisse=integer&accumsan=pede&tortor=justo&quis=lacinia&turpis=eget&sed=tincidunt&ante=eget&vivamus=tempus&tortor=vel&duis=pede&mattis=morbi&egestas=porttitor&metus=lorem&aenean=id&fermentum=ligula&donec=suspendisse&ut=ornare&mauris=consequat&eget=lectus&massa=in&tempor=est&convallis=risus&nulla=auctor&neque=sed&libero=tristique&convallis=in&eget=tempus&eleifend=sit&luctus=amet&ultricies=sem&eu=fusce&nibh=consequat&quisque=nulla&id=nisl&justo=nunc&sit=nisl&amet=duis",
      "lat": 49.799354,
      "lng": 23.518328,
      "position": {
          "lat": 49.799354,
          "lng": 23.518328
      }
  },
  {
      "name": "Marine Transportation",
      "speaker": "Eveleen Lantaph",
      "location": "Melaka",
      "date": "2022-12-06T12:16:09Z",
      "url": "http://nsw.gov.au/odio/cras/mi/pede.html?posuere=aenean&cubilia=auctor&curae=gravida&duis=sem&faucibus=praesent&accumsan=id&odio=massa&curabitur=id&convallis=nisl&duis=venenatis&consequat=lacinia&dui=aenean&nec=sit&nisi=amet&volutpat=justo&eleifend=morbi&donec=ut&ut=odio&dolor=cras&morbi=mi&vel=pede&lectus=malesuada&in=in&quam=imperdiet&fringilla=et&rhoncus=commodo&mauris=vulputate&enim=justo&leo=in&rhoncus=blandit&sed=ultrices&vestibulum=enim&sit=lorem&amet=ipsum&cursus=dolor&id=sit&turpis=amet&integer=consectetuer&aliquet=adipiscing&massa=elit&id=proin&lobortis=interdum&convallis=mauris&tortor=non&risus=ligula&dapibus=pellentesque&augue=ultrices&vel=phasellus&accumsan=id&tellus=sapien&nisi=in&eu=sapien&orci=iaculis&mauris=congue&lacinia=vivamus&sapien=metus&quis=arcu&libero=adipiscing&nullam=molestie&sit=hendrerit&amet=at&turpis=vulputate&elementum=vitae&ligula=nisl&vehicula=aenean&consequat=lectus&morbi=pellentesque&a=eget&ipsum=nunc&integer=donec&a=quis&nibh=orci&in=eget&quis=orci&justo=vehicula&maecenas=condimentum&rhoncus=curabitur&aliquam=in&lacus=libero&morbi=ut&quis=massa&tortor=volutpat&id=convallis&nulla=morbi&ultrices=odio&aliquet=odio&maecenas=elementum&leo=eu&odio=interdum&condimentum=eu&id=tincidunt&luctus=in",
      "lat": 3.1121428,
      "lng": 101.6935065,
      "position": {
          "lat": 3.1121428,
          "lng": 101.6935065
      }
  },
  {
      "name": "n/a",
      "speaker": "Mellisent MacCambridge",
      "location": "Kalidawir",
      "date": "2022-11-28T05:30:46Z",
      "url": "https://qq.com/ultrices/erat/tortor/sollicitudin/mi/sit/amet.aspx?faucibus=integer&orci=pede&luctus=justo&et=lacinia",
      "lat": -8.1950813,
      "lng": 111.9403254,
      "position": {
          "lat": -8.1950813,
          "lng": 111.9403254
      }
  },
  {
      "name": "Auto Manufacturing",
      "speaker": "Corbin Boas",
      "location": "Ailuk",
      "date": "2023-02-18T16:11:18Z",
      "url": "https://pagesperso-orange.fr/primis/in/faucibus/orci/luctus.html?aliquam=pede&convallis=lobortis&nunc=ligula&proin=sit&at=amet&turpis=eleifend&a=pede&pede=libero&posuere=quis&nonummy=orci&integer=nullam",
      "lat": 10.21972,
      "lng": 169.97967,
      "position": {
          "lat": 10.21972,
          "lng": 169.97967
      }
  },
  {
      "name": "Agricultural Chemicals",
      "speaker": "Lazare Stuchbery",
      "location": "Wanglinkou",
      "date": "2023-01-17T12:35:18Z",
      "url": "http://imdb.com/dictumst/maecenas/ut/massa.jpg?praesent=pede&lectus=ullamcorper&vestibulum=augue&quam=a&sapien=suscipit&varius=nulla&ut=elit&blandit=ac&non=nulla&interdum=sed&in=vel&ante=enim&vestibulum=sit&ante=amet&ipsum=nunc&primis=viverra&in=dapibus&faucibus=nulla&orci=suscipit&luctus=ligula&et=in&ultrices=lacus&posuere=curabitur&cubilia=at&curae=ipsum&duis=ac&faucibus=tellus&accumsan=semper&odio=interdum&curabitur=mauris&convallis=ullamcorper&duis=purus&consequat=sit&dui=amet&nec=nulla&nisi=quisque",
      "lat": 38.822691,
      "lng": 114.35056,
      "position": {
          "lat": 38.822691,
          "lng": 114.35056
      }
  },
  {
      "name": "Real Estate Investment Trusts",
      "speaker": "Davidde Felderer",
      "location": "Chalamarca",
      "date": "2023-10-21T06:40:32Z",
      "url": "https://quantcast.com/eget.js?convallis=praesent&nulla=id&neque=massa&libero=id&convallis=nisl&eget=venenatis&eleifend=lacinia&luctus=aenean&ultricies=sit&eu=amet&nibh=justo&quisque=morbi&id=ut&justo=odio&sit=cras&amet=mi&sapien=pede&dignissim=malesuada&vestibulum=in&vestibulum=imperdiet&ante=et&ipsum=commodo&primis=vulputate&in=justo&faucibus=in&orci=blandit&luctus=ultrices&et=enim&ultrices=lorem&posuere=ipsum&cubilia=dolor&curae=sit&nulla=amet&dapibus=consectetuer&dolor=adipiscing&vel=elit&est=proin&donec=interdum&odio=mauris&justo=non&sollicitudin=ligula&ut=pellentesque&suscipit=ultrices&a=phasellus&feugiat=id&et=sapien&eros=in&vestibulum=sapien&ac=iaculis&est=congue&lacinia=vivamus&nisi=metus&venenatis=arcu&tristique=adipiscing&fusce=molestie&congue=hendrerit&diam=at&id=vulputate&ornare=vitae&imperdiet=nisl&sapien=aenean&urna=lectus&pretium=pellentesque&nisl=eget&ut=nunc&volutpat=donec&sapien=quis&arcu=orci&sed=eget&augue=orci&aliquam=vehicula&erat=condimentum&volutpat=curabitur&in=in&congue=libero&etiam=ut&justo=massa&etiam=volutpat&pretium=convallis&iaculis=morbi&justo=odio&in=odio&hac=elementum&habitasse=eu&platea=interdum&dictumst=eu&etiam=tincidunt&faucibus=in&cursus=leo",
      "lat": -6.5139395,
      "lng": -78.5185197,
      "position": {
          "lat": -6.5139395,
          "lng": -78.5185197
      }
  },
  {
      "name": "Department/Specialty Retail Stores",
      "speaker": "Filide Muncer",
      "location": "Lokwabe",
      "date": "2023-03-29T03:44:48Z",
      "url": "http://youtu.be/elementum/in/hac/habitasse/platea/dictumst.json?neque=turpis&libero=integer&convallis=aliquet&eget=massa&eleifend=id&luctus=lobortis&ultricies=convallis&eu=tortor&nibh=risus&quisque=dapibus&id=augue&justo=vel&sit=accumsan&amet=tellus&sapien=nisi&dignissim=eu&vestibulum=orci&vestibulum=mauris&ante=lacinia&ipsum=sapien&primis=quis&in=libero&faucibus=nullam&orci=sit&luctus=amet&et=turpis&ultrices=elementum&posuere=ligula&cubilia=vehicula&curae=consequat&nulla=morbi&dapibus=a&dolor=ipsum&vel=integer&est=a&donec=nibh&odio=in&justo=quis&sollicitudin=justo&ut=maecenas&suscipit=rhoncus&a=aliquam&feugiat=lacus&et=morbi&eros=quis&vestibulum=tortor&ac=id&est=nulla",
      "lat": -24.166667,
      "lng": 21.833333,
      "position": {
          "lat": -24.166667,
          "lng": 21.833333
      }
  },
  {
      "name": "Business Services",
      "speaker": "Jolyn Pichan",
      "location": "Hekou",
      "date": "2023-07-20T11:05:18Z",
      "url": "https://free.fr/sed/interdum/venenatis/turpis/enim/blandit.xml?congue=feugiat&etiam=non&justo=pretium&etiam=quis&pretium=lectus&iaculis=suspendisse&justo=potenti&in=in&hac=eleifend&habitasse=quam&platea=a&dictumst=odio&etiam=in&faucibus=hac&cursus=habitasse&urna=platea&ut=dictumst&tellus=maecenas&nulla=ut&ut=massa&erat=quis&id=augue&mauris=luctus&vulputate=tincidunt&elementum=nulla&nullam=mollis&varius=molestie&nulla=lorem&facilisi=quisque&cras=ut&non=erat&velit=curabitur&nec=gravida&nisi=nisi&vulputate=at&nonummy=nibh&maecenas=in&tincidunt=hac&lacus=habitasse&at=platea&velit=dictumst&vivamus=aliquam&vel=augue",
      "lat": 22.529403,
      "lng": 103.93935,
      "position": {
          "lat": 22.529403,
          "lng": 103.93935
      }
  },
  {
      "name": "Other Consumer Services",
      "speaker": "Elvira Ollivierre",
      "location": "Wuli",
      "date": "2023-10-19T10:34:39Z",
      "url": "https://google.it/quisque/ut/erat/curabitur/gravida/nisi/at.js?ultrices=orci&aliquet=luctus&maecenas=et&leo=ultrices&odio=posuere&condimentum=cubilia&id=curae&luctus=duis&nec=faucibus&molestie=accumsan&sed=odio&justo=curabitur&pellentesque=convallis&viverra=duis",
      "lat": 29.893672,
      "lng": 110.346166,
      "position": {
          "lat": 29.893672,
          "lng": 110.346166
      }
  },
  {
      "name": "Industrial Specialties",
      "speaker": "Nanni Redan",
      "location": "Gaya",
      "date": "2023-01-27T19:24:51Z",
      "url": "http://mapquest.com/luctus/et/ultrices/posuere/cubilia/curae/donec.xml?suscipit=dolor&a=morbi&feugiat=vel&et=lectus&eros=in&vestibulum=quam&ac=fringilla&est=rhoncus&lacinia=mauris&nisi=enim&venenatis=leo&tristique=rhoncus&fusce=sed&congue=vestibulum&diam=sit&id=amet&ornare=cursus&imperdiet=id&sapien=turpis&urna=integer&pretium=aliquet&nisl=massa&ut=id&volutpat=lobortis&sapien=convallis&arcu=tortor&sed=risus&augue=dapibus&aliquam=augue&erat=vel&volutpat=accumsan&in=tellus&congue=nisi&etiam=eu&justo=orci&etiam=mauris&pretium=lacinia&iaculis=sapien&justo=quis&in=libero&hac=nullam&habitasse=sit&platea=amet&dictumst=turpis&etiam=elementum&faucibus=ligula&cursus=vehicula&urna=consequat&ut=morbi&tellus=a&nulla=ipsum&ut=integer&erat=a&id=nibh&mauris=in&vulputate=quis&elementum=justo&nullam=maecenas&varius=rhoncus&nulla=aliquam&facilisi=lacus&cras=morbi&non=quis&velit=tortor&nec=id&nisi=nulla&vulputate=ultrices&nonummy=aliquet&maecenas=maecenas&tincidunt=leo&lacus=odio&at=condimentum&velit=id&vivamus=luctus&vel=nec&nulla=molestie&eget=sed&eros=justo&elementum=pellentesque&pellentesque=viverra&quisque=pede&porta=ac&volutpat=diam&erat=cras&quisque=pellentesque&erat=volutpat&eros=dui&viverra=maecenas&eget=tristique&congue=est&eget=et&semper=tempus&rutrum=semper&nulla=est&nunc=quam&purus=pharetra&phasellus=magna&in=ac&felis=consequat&donec=metus",
      "lat": 11.862577,
      "lng": 8.9990801,
      "position": {
          "lat": 11.862577,
          "lng": 8.9990801
      }
  },
  {
      "name": "Recreational Products/Toys",
      "speaker": "Gweneth Jemison",
      "location": "Quintães",
      "date": "2022-12-23T21:51:07Z",
      "url": "https://nytimes.com/id/massa/id/nisl/venenatis/lacinia.xml?dolor=porta&sit=volutpat&amet=quam&consectetuer=pede&adipiscing=lobortis&elit=ligula&proin=sit&interdum=amet&mauris=eleifend&non=pede&ligula=libero&pellentesque=quis&ultrices=orci&phasellus=nullam&id=molestie&sapien=nibh&in=in&sapien=lectus&iaculis=pellentesque&congue=at&vivamus=nulla",
      "lat": 41.3402313,
      "lng": -8.3633682,
      "position": {
          "lat": 41.3402313,
          "lng": -8.3633682
      }
  },
  {
      "name": "n/a",
      "speaker": "Lilla Dasent",
      "location": "Shreveport",
      "date": "2023-10-29T17:27:19Z",
      "url": "https://plala.or.jp/vel/augue/vestibulum.js?congue=euismod&diam=scelerisque&id=quam&ornare=turpis&imperdiet=adipiscing&sapien=lorem&urna=vitae&pretium=mattis&nisl=nibh&ut=ligula&volutpat=nec&sapien=sem&arcu=duis&sed=aliquam&augue=convallis&aliquam=nunc&erat=proin&volutpat=at&in=turpis&congue=a&etiam=pede&justo=posuere&etiam=nonummy&pretium=integer&iaculis=non&justo=velit&in=donec&hac=diam&habitasse=neque&platea=vestibulum&dictumst=eget&etiam=vulputate&faucibus=ut&cursus=ultrices&urna=vel&ut=augue&tellus=vestibulum&nulla=ante&ut=ipsum&erat=primis&id=in&mauris=faucibus&vulputate=orci&elementum=luctus&nullam=et&varius=ultrices&nulla=posuere&facilisi=cubilia&cras=curae&non=donec&velit=pharetra&nec=magna&nisi=vestibulum&vulputate=aliquet&nonummy=ultrices&maecenas=erat&tincidunt=tortor&lacus=sollicitudin&at=mi&velit=sit&vivamus=amet&vel=lobortis&nulla=sapien&eget=sapien&eros=non&elementum=mi",
      "lat": 32.4545928,
      "lng": -93.7079745,
      "position": {
          "lat": 32.4545928,
          "lng": -93.7079745
      }
  },
  {
      "name": "Real Estate Investment Trusts",
      "speaker": "Conni Crookshanks",
      "location": "Meylan",
      "date": "2023-11-21T11:15:09Z",
      "url": "http://youtube.com/morbi/sem/mauris/laoreet/ut/rhoncus.png?cras=turpis&in=donec&purus=posuere&eu=metus&magna=vitae&vulputate=ipsum&luctus=aliquam&cum=non&sociis=mauris&natoque=morbi&penatibus=non&et=lectus&magnis=aliquam&dis=sit&parturient=amet&montes=diam&nascetur=in&ridiculus=magna&mus=bibendum&vivamus=imperdiet&vestibulum=nullam&sagittis=orci&sapien=pede&cum=venenatis&sociis=non&natoque=sodales&penatibus=sed&et=tincidunt&magnis=eu&dis=felis&parturient=fusce&montes=posuere&nascetur=felis&ridiculus=sed&mus=lacus&etiam=morbi&vel=sem&augue=mauris&vestibulum=laoreet&rutrum=ut&rutrum=rhoncus&neque=aliquet&aenean=pulvinar&auctor=sed&gravida=nisl&sem=nunc&praesent=rhoncus&id=dui&massa=vel&id=sem&nisl=sed&venenatis=sagittis&lacinia=nam&aenean=congue&sit=risus&amet=semper&justo=porta&morbi=volutpat&ut=quam&odio=pede&cras=lobortis&mi=ligula&pede=sit&malesuada=amet&in=eleifend&imperdiet=pede&et=libero",
      "lat": 45.203406,
      "lng": 5.764182,
      "position": {
          "lat": 45.203406,
          "lng": 5.764182
      }
  },
  {
      "name": "Electric Utilities: Central",
      "speaker": "Cross Faulkner",
      "location": "Bi’r al ‘Abd",
      "date": "2023-03-20T08:24:51Z",
      "url": "http://ezinearticles.com/vel.aspx?a=ut&ipsum=nulla&integer=sed&a=accumsan&nibh=felis&in=ut&quis=at&justo=dolor&maecenas=quis&rhoncus=odio&aliquam=consequat&lacus=varius&morbi=integer&quis=ac&tortor=leo&id=pellentesque&nulla=ultrices&ultrices=mattis&aliquet=odio&maecenas=donec&leo=vitae&odio=nisi&condimentum=nam&id=ultrices&luctus=libero&nec=non&molestie=mattis&sed=pulvinar&justo=nulla&pellentesque=pede&viverra=ullamcorper&pede=augue&ac=a&diam=suscipit&cras=nulla&pellentesque=elit&volutpat=ac&dui=nulla&maecenas=sed&tristique=vel&est=enim&et=sit&tempus=amet&semper=nunc",
      "lat": 31.0147222,
      "lng": 28.2477778,
      "position": {
          "lat": 31.0147222,
          "lng": 28.2477778
      }
  },
  {
      "name": "Life Insurance",
      "speaker": "Kristoforo Oliveras",
      "location": "Marseille",
      "date": "2023-02-24T23:28:31Z",
      "url": "http://amazon.de/id/nisl/venenatis/lacinia/aenean/sit/amet.json?lectus=ligula&in=suspendisse&est=ornare&risus=consequat&auctor=lectus&sed=in&tristique=est&in=risus&tempus=auctor&sit=sed&amet=tristique&sem=in&fusce=tempus&consequat=sit&nulla=amet&nisl=sem&nunc=fusce&nisl=consequat&duis=nulla&bibendum=nisl&felis=nunc&sed=nisl&interdum=duis&venenatis=bibendum&turpis=felis&enim=sed&blandit=interdum&mi=venenatis&in=turpis&porttitor=enim&pede=blandit&justo=mi&eu=in&massa=porttitor&donec=pede&dapibus=justo&duis=eu&at=massa&velit=donec&eu=dapibus&est=duis&congue=at&elementum=velit&in=eu&hac=est&habitasse=congue&platea=elementum&dictumst=in&morbi=hac&vestibulum=habitasse&velit=platea&id=dictumst&pretium=morbi&iaculis=vestibulum&diam=velit&erat=id&fermentum=pretium&justo=iaculis&nec=diam&condimentum=erat&neque=fermentum&sapien=justo&placerat=nec&ante=condimentum&nulla=neque&justo=sapien&aliquam=placerat&quis=ante",
      "lat": 43.7441795,
      "lng": 2.511999,
      "position": {
          "lat": 43.7441795,
          "lng": 2.511999
      }
  },
  {
      "name": "Business Services",
      "speaker": "Lindsay Grayshan",
      "location": "Huayuan",
      "date": "2023-04-17T01:08:46Z",
      "url": "http://acquirethisname.com/ante.jsp?dui=eu&luctus=orci&rutrum=mauris&nulla=lacinia&tellus=sapien&in=quis&sagittis=libero&dui=nullam&vel=sit&nisl=amet&duis=turpis&ac=elementum&nibh=ligula&fusce=vehicula&lacus=consequat&purus=morbi&aliquet=a&at=ipsum&feugiat=integer&non=a&pretium=nibh&quis=in&lectus=quis&suspendisse=justo&potenti=maecenas&in=rhoncus&eleifend=aliquam&quam=lacus&a=morbi&odio=quis&in=tortor&hac=id&habitasse=nulla&platea=ultrices&dictumst=aliquet&maecenas=maecenas&ut=leo&massa=odio&quis=condimentum&augue=id&luctus=luctus&tincidunt=nec&nulla=molestie&mollis=sed&molestie=justo&lorem=pellentesque&quisque=viverra&ut=pede&erat=ac&curabitur=diam&gravida=cras&nisi=pellentesque&at=volutpat&nibh=dui&in=maecenas&hac=tristique&habitasse=est&platea=et&dictumst=tempus&aliquam=semper&augue=est&quam=quam&sollicitudin=pharetra&vitae=magna&consectetuer=ac&eget=consequat&rutrum=metus&at=sapien&lorem=ut&integer=nunc&tincidunt=vestibulum&ante=ante&vel=ipsum&ipsum=primis&praesent=in&blandit=faucibus&lacinia=orci&erat=luctus&vestibulum=et&sed=ultrices&magna=posuere&at=cubilia&nunc=curae&commodo=mauris&placerat=viverra&praesent=diam&blandit=vitae&nam=quam&nulla=suspendisse&integer=potenti&pede=nullam&justo=porttitor&lacinia=lacus&eget=at",
      "lat": 28.572029,
      "lng": 109.482078,
      "position": {
          "lat": 28.572029,
          "lng": 109.482078
      }
  },
  {
      "name": "Major Banks",
      "speaker": "Maddie Huckle",
      "location": "Bei’an",
      "date": "2023-07-24T05:23:57Z",
      "url": "http://goodreads.com/luctus/nec/molestie/sed/justo/pellentesque/viverra.png?interdum=fusce&mauris=congue&non=diam&ligula=id&pellentesque=ornare&ultrices=imperdiet&phasellus=sapien&id=urna&sapien=pretium&in=nisl&sapien=ut&iaculis=volutpat&congue=sapien&vivamus=arcu&metus=sed&arcu=augue&adipiscing=aliquam&molestie=erat&hendrerit=volutpat",
      "lat": 48.239135,
      "lng": 126.481867,
      "position": {
          "lat": 48.239135,
          "lng": 126.481867
      }
  },
  {
      "name": "Engineering & Construction",
      "speaker": "Dyann Faltskog",
      "location": "Karakol",
      "date": "2023-10-12T06:23:12Z",
      "url": "https://stanford.edu/nulla/mollis/molestie.js?sed=luctus&vestibulum=et&sit=ultrices&amet=posuere&cursus=cubilia&id=curae&turpis=nulla&integer=dapibus&aliquet=dolor&massa=vel&id=est&lobortis=donec&convallis=odio&tortor=justo&risus=sollicitudin&dapibus=ut&augue=suscipit&vel=a&accumsan=feugiat&tellus=et&nisi=eros&eu=vestibulum&orci=ac&mauris=est&lacinia=lacinia&sapien=nisi&quis=venenatis&libero=tristique&nullam=fusce&sit=congue&amet=diam&turpis=id&elementum=ornare&ligula=imperdiet&vehicula=sapien&consequat=urna&morbi=pretium&a=nisl&ipsum=ut&integer=volutpat&a=sapien&nibh=arcu&in=sed&quis=augue&justo=aliquam&maecenas=erat&rhoncus=volutpat&aliquam=in&lacus=congue&morbi=etiam&quis=justo&tortor=etiam&id=pretium&nulla=iaculis&ultrices=justo&aliquet=in&maecenas=hac&leo=habitasse&odio=platea&condimentum=dictumst&id=etiam&luctus=faucibus&nec=cursus&molestie=urna&sed=ut&justo=tellus&pellentesque=nulla&viverra=ut&pede=erat&ac=id",
      "lat": 42.4782102,
      "lng": 78.3955986,
      "position": {
          "lat": 42.4782102,
          "lng": 78.3955986
      }
  },
  {
      "name": "Publishing",
      "speaker": "Courtenay Bawles",
      "location": "Pnikut",
      "date": "2023-06-17T11:28:54Z",
      "url": "https://eepurl.com/ac/enim/in/tempor/turpis.html?turpis=lacinia&elementum=erat&ligula=vestibulum&vehicula=sed&consequat=magna&morbi=at&a=nunc&ipsum=commodo&integer=placerat&a=praesent&nibh=blandit&in=nam&quis=nulla&justo=integer&maecenas=pede&rhoncus=justo&aliquam=lacinia&lacus=eget&morbi=tincidunt&quis=eget&tortor=tempus&id=vel&nulla=pede&ultrices=morbi&aliquet=porttitor&maecenas=lorem&leo=id&odio=ligula&condimentum=suspendisse&id=ornare&luctus=consequat&nec=lectus&molestie=in&sed=est&justo=risus&pellentesque=auctor&viverra=sed&pede=tristique&ac=in&diam=tempus&cras=sit&pellentesque=amet&volutpat=sem&dui=fusce&maecenas=consequat",
      "lat": 49.7115204,
      "lng": 23.1314414,
      "position": {
          "lat": 49.7115204,
          "lng": 23.1314414
      }
  },
  {
      "name": "EDP Services",
      "speaker": "Kacey Seczyk",
      "location": "Orahovica",
      "date": "2023-08-22T19:25:32Z",
      "url": "http://phoca.cz/nisl/nunc.json?ligula=morbi&vehicula=ut&consequat=odio&morbi=cras&a=mi&ipsum=pede&integer=malesuada&a=in&nibh=imperdiet&in=et&quis=commodo&justo=vulputate&maecenas=justo&rhoncus=in&aliquam=blandit&lacus=ultrices&morbi=enim&quis=lorem&tortor=ipsum&id=dolor&nulla=sit&ultrices=amet&aliquet=consectetuer&maecenas=adipiscing&leo=elit&odio=proin&condimentum=interdum&id=mauris&luctus=non&nec=ligula&molestie=pellentesque&sed=ultrices&justo=phasellus&pellentesque=id&viverra=sapien&pede=in&ac=sapien&diam=iaculis&cras=congue&pellentesque=vivamus&volutpat=metus&dui=arcu&maecenas=adipiscing&tristique=molestie&est=hendrerit&et=at&tempus=vulputate&semper=vitae&est=nisl&quam=aenean&pharetra=lectus&magna=pellentesque&ac=eget&consequat=nunc&metus=donec&sapien=quis&ut=orci&nunc=eget&vestibulum=orci&ante=vehicula&ipsum=condimentum&primis=curabitur&in=in&faucibus=libero&orci=ut&luctus=massa&et=volutpat&ultrices=convallis&posuere=morbi&cubilia=odio&curae=odio&mauris=elementum&viverra=eu&diam=interdum&vitae=eu&quam=tincidunt&suspendisse=in&potenti=leo&nullam=maecenas&porttitor=pulvinar&lacus=lobortis&at=est&turpis=phasellus&donec=sit&posuere=amet&metus=erat&vitae=nulla&ipsum=tempus",
      "lat": 45.5288007,
      "lng": 17.8803474,
      "position": {
          "lat": 45.5288007,
          "lng": 17.8803474
      }
  },
  {
      "name": "Diversified Commercial Services",
      "speaker": "Ilyse Munt",
      "location": "Leiden",
      "date": "2023-03-14T08:58:09Z",
      "url": "https://godaddy.com/pede/malesuada/in/imperdiet/et/commodo/vulputate.jpg?hac=porttitor&habitasse=pede&platea=justo&dictumst=eu&aliquam=massa&augue=donec&quam=dapibus&sollicitudin=duis&vitae=at&consectetuer=velit&eget=eu&rutrum=est&at=congue&lorem=elementum&integer=in&tincidunt=hac&ante=habitasse&vel=platea&ipsum=dictumst&praesent=morbi&blandit=vestibulum&lacinia=velit&erat=id&vestibulum=pretium&sed=iaculis&magna=diam&at=erat&nunc=fermentum&commodo=justo&placerat=nec&praesent=condimentum&blandit=neque&nam=sapien&nulla=placerat&integer=ante&pede=nulla&justo=justo&lacinia=aliquam&eget=quis&tincidunt=turpis&eget=eget&tempus=elit&vel=sodales&pede=scelerisque&morbi=mauris",
      "lat": 52.1513886,
      "lng": 4.4982869,
      "position": {
          "lat": 52.1513886,
          "lng": 4.4982869
      }
  },
  {
      "name": "Real Estate Investment Trusts",
      "speaker": "Aeriell Bischoff",
      "location": "Chum Phuang",
      "date": "2023-02-02T22:54:34Z",
      "url": "http://cbc.ca/justo/morbi/ut/odio.png?adipiscing=in&elit=hac&proin=habitasse&risus=platea&praesent=dictumst&lectus=maecenas&vestibulum=ut&quam=massa&sapien=quis&varius=augue&ut=luctus&blandit=tincidunt&non=nulla&interdum=mollis&in=molestie&ante=lorem&vestibulum=quisque&ante=ut&ipsum=erat&primis=curabitur&in=gravida&faucibus=nisi&orci=at&luctus=nibh&et=in&ultrices=hac&posuere=habitasse&cubilia=platea&curae=dictumst&duis=aliquam&faucibus=augue&accumsan=quam&odio=sollicitudin&curabitur=vitae&convallis=consectetuer&duis=eget&consequat=rutrum&dui=at&nec=lorem&nisi=integer&volutpat=tincidunt&eleifend=ante&donec=vel&ut=ipsum&dolor=praesent&morbi=blandit&vel=lacinia&lectus=erat&in=vestibulum&quam=sed&fringilla=magna&rhoncus=at&mauris=nunc&enim=commodo&leo=placerat&rhoncus=praesent&sed=blandit",
      "lat": 15.2679414,
      "lng": 102.8514837,
      "position": {
          "lat": 15.2679414,
          "lng": 102.8514837
      }
  },
  {
      "name": "Package Goods/Cosmetics",
      "speaker": "Dina Shreeves",
      "location": "Kamloops",
      "date": "2023-08-28T16:36:52Z",
      "url": "https://cloudflare.com/erat.png?sed=maecenas&augue=rhoncus&aliquam=aliquam&erat=lacus&volutpat=morbi&in=quis&congue=tortor&etiam=id&justo=nulla&etiam=ultrices&pretium=aliquet&iaculis=maecenas&justo=leo&in=odio&hac=condimentum&habitasse=id&platea=luctus&dictumst=nec&etiam=molestie&faucibus=sed&cursus=justo&urna=pellentesque&ut=viverra&tellus=pede&nulla=ac&ut=diam&erat=cras&id=pellentesque&mauris=volutpat&vulputate=dui&elementum=maecenas&nullam=tristique&varius=est&nulla=et&facilisi=tempus&cras=semper&non=est&velit=quam&nec=pharetra&nisi=magna&vulputate=ac&nonummy=consequat&maecenas=metus&tincidunt=sapien",
      "lat": 50.66648,
      "lng": -120.3192,
      "position": {
          "lat": 50.66648,
          "lng": -120.3192
      }
  },
  {
      "name": "Major Pharmaceuticals",
      "speaker": "Ulric Roots",
      "location": "Aanislag",
      "date": "2023-07-17T20:40:15Z",
      "url": "http://japanpost.jp/nunc/donec.png?quis=ut&lectus=ultrices&suspendisse=vel&potenti=augue&in=vestibulum&eleifend=ante&quam=ipsum&a=primis&odio=in&in=faucibus&hac=orci&habitasse=luctus&platea=et&dictumst=ultrices&maecenas=posuere&ut=cubilia&massa=curae&quis=donec&augue=pharetra&luctus=magna&tincidunt=vestibulum&nulla=aliquet&mollis=ultrices&molestie=erat&lorem=tortor&quisque=sollicitudin&ut=mi&erat=sit&curabitur=amet&gravida=lobortis&nisi=sapien&at=sapien&nibh=non&in=mi&hac=integer&habitasse=ac&platea=neque&dictumst=duis&aliquam=bibendum&augue=morbi&quam=non&sollicitudin=quam&vitae=nec&consectetuer=dui&eget=luctus&rutrum=rutrum&at=nulla&lorem=tellus&integer=in&tincidunt=sagittis&ante=dui&vel=vel&ipsum=nisl&praesent=duis&blandit=ac&lacinia=nibh&erat=fusce&vestibulum=lacus&sed=purus&magna=aliquet&at=at&nunc=feugiat&commodo=non&placerat=pretium&praesent=quis&blandit=lectus&nam=suspendisse&nulla=potenti&integer=in&pede=eleifend&justo=quam&lacinia=a&eget=odio&tincidunt=in&eget=hac&tempus=habitasse&vel=platea&pede=dictumst&morbi=maecenas&porttitor=ut&lorem=massa&id=quis&ligula=augue&suspendisse=luctus&ornare=tincidunt&consequat=nulla&lectus=mollis&in=molestie&est=lorem&risus=quisque&auctor=ut&sed=erat&tristique=curabitur&in=gravida&tempus=nisi&sit=at",
      "lat": 13.0748,
      "lng": 123.703,
      "position": {
          "lat": 13.0748,
          "lng": 123.703
      }
  },
  {
      "name": "n/a",
      "speaker": "Claude Giraths",
      "location": "Shangsanji",
      "date": "2023-03-08T16:37:59Z",
      "url": "http://skype.com/at/turpis/donec/posuere/metus.jsp?nisi=quis&volutpat=orci&eleifend=nullam&donec=molestie&ut=nibh&dolor=in&morbi=lectus&vel=pellentesque&lectus=at&in=nulla&quam=suspendisse&fringilla=potenti&rhoncus=cras",
      "lat": 38.322854,
      "lng": 114.245006,
      "position": {
          "lat": 38.322854,
          "lng": 114.245006
      }
  },
  {
      "name": "n/a",
      "speaker": "Dolly Olesen",
      "location": "Sihe",
      "date": "2023-04-15T13:37:50Z",
      "url": "https://shinystat.com/at/turpis/a/pede/posuere.png?turpis=bibendum&a=morbi&pede=non&posuere=quam&nonummy=nec&integer=dui&non=luctus&velit=rutrum&donec=nulla&diam=tellus&neque=in&vestibulum=sagittis&eget=dui&vulputate=vel&ut=nisl&ultrices=duis&vel=ac",
      "lat": 39.91983,
      "lng": 116.41571,
      "position": {
          "lat": 39.91983,
          "lng": 116.41571
      }
  },
  {
      "name": "Property-Casualty Insurers",
      "speaker": "Harli Bryde",
      "location": "Nageswari",
      "date": "2023-02-01T16:16:26Z",
      "url": "http://yahoo.com/molestie/nibh/in/lectus.json?vestibulum=posuere&sagittis=cubilia&sapien=curae&cum=mauris&sociis=viverra&natoque=diam&penatibus=vitae&et=quam&magnis=suspendisse&dis=potenti&parturient=nullam&montes=porttitor&nascetur=lacus&ridiculus=at&mus=turpis&etiam=donec&vel=posuere&augue=metus&vestibulum=vitae&rutrum=ipsum&rutrum=aliquam&neque=non&aenean=mauris&auctor=morbi&gravida=non&sem=lectus&praesent=aliquam",
      "lat": 25.9755686,
      "lng": 89.6367458,
      "position": {
          "lat": 25.9755686,
          "lng": 89.6367458
      }
  },
  {
      "name": "Major Pharmaceuticals",
      "speaker": "Hunt Timcke",
      "location": "Mangochi",
      "date": "2023-08-07T09:02:36Z",
      "url": "https://quantcast.com/cursus/vestibulum/proin/eu/mi/nulla/ac.json?mauris=leo&morbi=maecenas&non=pulvinar&lectus=lobortis&aliquam=est&sit=phasellus&amet=sit&diam=amet&in=erat&magna=nulla&bibendum=tempus&imperdiet=vivamus&nullam=in&orci=felis&pede=eu&venenatis=sapien&non=cursus&sodales=vestibulum&sed=proin&tincidunt=eu&eu=mi&felis=nulla&fusce=ac&posuere=enim&felis=in&sed=tempor&lacus=turpis&morbi=nec&sem=euismod&mauris=scelerisque&laoreet=quam&ut=turpis&rhoncus=adipiscing&aliquet=lorem&pulvinar=vitae&sed=mattis&nisl=nibh&nunc=ligula&rhoncus=nec&dui=sem&vel=duis&sem=aliquam&sed=convallis&sagittis=nunc&nam=proin&congue=at&risus=turpis&semper=a&porta=pede&volutpat=posuere&quam=nonummy&pede=integer&lobortis=non&ligula=velit&sit=donec&amet=diam&eleifend=neque&pede=vestibulum&libero=eget&quis=vulputate&orci=ut&nullam=ultrices&molestie=vel&nibh=augue&in=vestibulum&lectus=ante&pellentesque=ipsum&at=primis&nulla=in&suspendisse=faucibus&potenti=orci&cras=luctus&in=et&purus=ultrices&eu=posuere&magna=cubilia&vulputate=curae&luctus=donec&cum=pharetra&sociis=magna&natoque=vestibulum&penatibus=aliquet&et=ultrices&magnis=erat&dis=tortor&parturient=sollicitudin&montes=mi&nascetur=sit&ridiculus=amet&mus=lobortis&vivamus=sapien&vestibulum=sapien&sagittis=non",
      "lat": -14.4861733,
      "lng": 35.253304,
      "position": {
          "lat": -14.4861733,
          "lng": 35.253304
      }
  },
  {
      "name": "Electric Utilities: Central",
      "speaker": "Cully McCome",
      "location": "Ronglong",
      "date": "2023-10-02T08:13:38Z",
      "url": "https://prweb.com/duis/aliquam.html?cubilia=id&curae=sapien&donec=in&pharetra=sapien&magna=iaculis&vestibulum=congue&aliquet=vivamus&ultrices=metus&erat=arcu&tortor=adipiscing&sollicitudin=molestie&mi=hendrerit&sit=at&amet=vulputate&lobortis=vitae&sapien=nisl&sapien=aenean&non=lectus&mi=pellentesque&integer=eget&ac=nunc&neque=donec&duis=quis&bibendum=orci&morbi=eget&non=orci&quam=vehicula&nec=condimentum&dui=curabitur&luctus=in&rutrum=libero&nulla=ut&tellus=massa&in=volutpat&sagittis=convallis&dui=morbi&vel=odio&nisl=odio&duis=elementum&ac=eu&nibh=interdum&fusce=eu&lacus=tincidunt&purus=in&aliquet=leo&at=maecenas&feugiat=pulvinar&non=lobortis&pretium=est&quis=phasellus&lectus=sit&suspendisse=amet&potenti=erat&in=nulla&eleifend=tempus&quam=vivamus&a=in&odio=felis&in=eu&hac=sapien&habitasse=cursus&platea=vestibulum&dictumst=proin&maecenas=eu&ut=mi&massa=nulla&quis=ac&augue=enim&luctus=in&tincidunt=tempor&nulla=turpis&mollis=nec&molestie=euismod&lorem=scelerisque&quisque=quam&ut=turpis&erat=adipiscing&curabitur=lorem&gravida=vitae&nisi=mattis&at=nibh&nibh=ligula&in=nec&hac=sem&habitasse=duis&platea=aliquam&dictumst=convallis&aliquam=nunc&augue=proin&quam=at&sollicitudin=turpis&vitae=a&consectetuer=pede&eget=posuere&rutrum=nonummy&at=integer&lorem=non&integer=velit",
      "lat": 40.8833166,
      "lng": 107.1419766,
      "position": {
          "lat": 40.8833166,
          "lng": 107.1419766
      }
  },
  {
      "name": "Food Distributors",
      "speaker": "Jeannine Puttrell",
      "location": "Kingston",
      "date": "2023-10-21T03:38:08Z",
      "url": "http://thetimes.co.uk/est/et/tempus/semper/est.jpg?parturient=hendrerit&montes=at&nascetur=vulputate&ridiculus=vitae&mus=nisl&vivamus=aenean&vestibulum=lectus&sagittis=pellentesque&sapien=eget&cum=nunc&sociis=donec&natoque=quis&penatibus=orci&et=eget&magnis=orci&dis=vehicula&parturient=condimentum&montes=curabitur&nascetur=in&ridiculus=libero&mus=ut&etiam=massa&vel=volutpat&augue=convallis&vestibulum=morbi&rutrum=odio&rutrum=odio&neque=elementum&aenean=eu&auctor=interdum&gravida=eu&sem=tincidunt&praesent=in&id=leo&massa=maecenas&id=pulvinar&nisl=lobortis&venenatis=est&lacinia=phasellus&aenean=sit&sit=amet&amet=erat&justo=nulla&morbi=tempus&ut=vivamus&odio=in&cras=felis&mi=eu&pede=sapien&malesuada=cursus&in=vestibulum&imperdiet=proin&et=eu&commodo=mi&vulputate=nulla&justo=ac&in=enim&blandit=in&ultrices=tempor&enim=turpis&lorem=nec&ipsum=euismod&dolor=scelerisque&sit=quam&amet=turpis&consectetuer=adipiscing&adipiscing=lorem&elit=vitae&proin=mattis&interdum=nibh&mauris=ligula&non=nec&ligula=sem&pellentesque=duis&ultrices=aliquam&phasellus=convallis&id=nunc&sapien=proin&in=at&sapien=turpis&iaculis=a&congue=pede&vivamus=posuere&metus=nonummy&arcu=integer&adipiscing=non&molestie=velit&hendrerit=donec&at=diam&vulputate=neque&vitae=vestibulum&nisl=eget&aenean=vulputate&lectus=ut",
      "lat": -45.3321502,
      "lng": 168.7149323,
      "position": {
          "lat": -45.3321502,
          "lng": 168.7149323
      }
  },
  {
      "name": "Major Pharmaceuticals",
      "speaker": "Glori Issacson",
      "location": "Prudentópolis",
      "date": "2023-09-27T07:18:20Z",
      "url": "https://slate.com/nisl/venenatis.jpg?duis=mi&aliquam=sit&convallis=amet&nunc=lobortis&proin=sapien&at=sapien&turpis=non&a=mi&pede=integer&posuere=ac&nonummy=neque&integer=duis&non=bibendum&velit=morbi&donec=non&diam=quam",
      "lat": -25.1023112,
      "lng": -51.1376317,
      "position": {
          "lat": -25.1023112,
          "lng": -51.1376317
      }
  },
  {
      "name": "n/a",
      "speaker": "Ignace Pyrah",
      "location": "Molagavita",
      "date": "2023-08-01T01:26:24Z",
      "url": "http://google.nl/pellentesque/viverra/pede/ac/diam/cras/pellentesque.json?fermentum=semper&donec=est&ut=quam&mauris=pharetra&eget=magna&massa=ac&tempor=consequat&convallis=metus&nulla=sapien&neque=ut&libero=nunc&convallis=vestibulum&eget=ante&eleifend=ipsum&luctus=primis&ultricies=in&eu=faucibus&nibh=orci&quisque=luctus&id=et&justo=ultrices&sit=posuere&amet=cubilia&sapien=curae&dignissim=mauris&vestibulum=viverra&vestibulum=diam&ante=vitae&ipsum=quam&primis=suspendisse&in=potenti&faucibus=nullam&orci=porttitor&luctus=lacus&et=at&ultrices=turpis&posuere=donec&cubilia=posuere&curae=metus&nulla=vitae&dapibus=ipsum&dolor=aliquam&vel=non&est=mauris&donec=morbi&odio=non&justo=lectus&sollicitudin=aliquam&ut=sit&suscipit=amet&a=diam&feugiat=in&et=magna&eros=bibendum&vestibulum=imperdiet&ac=nullam&est=orci&lacinia=pede&nisi=venenatis&venenatis=non&tristique=sodales&fusce=sed&congue=tincidunt&diam=eu&id=felis&ornare=fusce&imperdiet=posuere&sapien=felis&urna=sed&pretium=lacus&nisl=morbi&ut=sem&volutpat=mauris&sapien=laoreet&arcu=ut",
      "lat": 6.6242047,
      "lng": -72.7924612,
      "position": {
          "lat": 6.6242047,
          "lng": -72.7924612
      }
  },
  {
      "name": "Telecommunications Equipment",
      "speaker": "Innis Pipping",
      "location": "Yihe",
      "date": "2023-08-15T13:15:20Z",
      "url": "https://i2i.jp/at/turpis/donec/posuere/metus.xml?augue=molestie&vestibulum=lorem&rutrum=quisque&rutrum=ut&neque=erat&aenean=curabitur&auctor=gravida&gravida=nisi&sem=at",
      "lat": 23.2196922,
      "lng": 113.3138804,
      "position": {
          "lat": 23.2196922,
          "lng": 113.3138804
      }
  },
  {
      "name": "n/a",
      "speaker": "Goddart Rome",
      "location": "Borovan",
      "date": "2022-11-28T11:14:21Z",
      "url": "https://printfriendly.com/volutpat/quam/pede.png?primis=pellentesque&in=ultrices&faucibus=phasellus&orci=id",
      "lat": 42.6687933,
      "lng": 23.2517507,
      "position": {
          "lat": 42.6687933,
          "lng": 23.2517507
      }
  },
  {
      "name": "Major Banks",
      "speaker": "Sande Aggett",
      "location": "San José",
      "date": "2023-01-10T03:34:32Z",
      "url": "https://amazon.com/adipiscing/lorem/vitae/mattis.jsp?nibh=condimentum&in=id&hac=luctus&habitasse=nec&platea=molestie&dictumst=sed&aliquam=justo&augue=pellentesque&quam=viverra&sollicitudin=pede&vitae=ac&consectetuer=diam&eget=cras&rutrum=pellentesque&at=volutpat&lorem=dui&integer=maecenas&tincidunt=tristique&ante=est&vel=et&ipsum=tempus&praesent=semper&blandit=est&lacinia=quam&erat=pharetra&vestibulum=magna&sed=ac&magna=consequat&at=metus&nunc=sapien&commodo=ut&placerat=nunc&praesent=vestibulum",
      "lat": 9.9165452,
      "lng": -84.1014639,
      "position": {
          "lat": 9.9165452,
          "lng": -84.1014639
      }
  },
  {
      "name": "EDP Services",
      "speaker": "Jeana Firle",
      "location": "Storuman",
      "date": "2023-11-23T09:52:58Z",
      "url": "https://virginia.edu/ac/neque/duis/bibendum/morbi/non/quam.jsp?morbi=nisl&quis=nunc&tortor=rhoncus&id=dui&nulla=vel&ultrices=sem&aliquet=sed&maecenas=sagittis&leo=nam&odio=congue&condimentum=risus&id=semper&luctus=porta&nec=volutpat&molestie=quam&sed=pede&justo=lobortis&pellentesque=ligula&viverra=sit&pede=amet&ac=eleifend&diam=pede&cras=libero&pellentesque=quis&volutpat=orci&dui=nullam&maecenas=molestie&tristique=nibh&est=in&et=lectus&tempus=pellentesque&semper=at&est=nulla&quam=suspendisse&pharetra=potenti&magna=cras&ac=in&consequat=purus&metus=eu&sapien=magna&ut=vulputate&nunc=luctus&vestibulum=cum&ante=sociis&ipsum=natoque&primis=penatibus&in=et&faucibus=magnis&orci=dis",
      "lat": 65.0081559,
      "lng": 17.0061406,
      "position": {
          "lat": 65.0081559,
          "lng": 17.0061406
      }
  },
  {
      "name": "Computer Manufacturing",
      "speaker": "Carmina Vynall",
      "location": "Xiushan",
      "date": "2023-11-17T04:04:54Z",
      "url": "http://howstuffworks.com/orci/luctus/et/ultrices/posuere/cubilia/curae.aspx?ante=nibh&vivamus=in&tortor=hac&duis=habitasse&mattis=platea&egestas=dictumst&metus=aliquam&aenean=augue&fermentum=quam&donec=sollicitudin&ut=vitae&mauris=consectetuer&eget=eget&massa=rutrum&tempor=at&convallis=lorem&nulla=integer&neque=tincidunt&libero=ante&convallis=vel&eget=ipsum&eleifend=praesent&luctus=blandit&ultricies=lacinia&eu=erat&nibh=vestibulum&quisque=sed&id=magna&justo=at&sit=nunc&amet=commodo&sapien=placerat&dignissim=praesent&vestibulum=blandit&vestibulum=nam&ante=nulla&ipsum=integer&primis=pede&in=justo&faucibus=lacinia&orci=eget&luctus=tincidunt&et=eget&ultrices=tempus&posuere=vel&cubilia=pede&curae=morbi&nulla=porttitor&dapibus=lorem&dolor=id&vel=ligula&est=suspendisse&donec=ornare&odio=consequat&justo=lectus&sollicitudin=in&ut=est&suscipit=risus&a=auctor&feugiat=sed&et=tristique&eros=in&vestibulum=tempus&ac=sit&est=amet&lacinia=sem&nisi=fusce&venenatis=consequat&tristique=nulla&fusce=nisl&congue=nunc&diam=nisl",
      "lat": 28.447997,
      "lng": 109.007094,
      "position": {
          "lat": 28.447997,
          "lng": 109.007094
      }
  },
  {
      "name": "Specialty Foods",
      "speaker": "Moreen Jodkowski",
      "location": "Kembangarum",
      "date": "2023-07-11T09:19:32Z",
      "url": "http://cnet.com/vehicula/condimentum/curabitur/in/libero/ut.js?leo=pede&pellentesque=posuere&ultrices=nonummy&mattis=integer&odio=non&donec=velit&vitae=donec&nisi=diam&nam=neque&ultrices=vestibulum&libero=eget&non=vulputate&mattis=ut&pulvinar=ultrices&nulla=vel&pede=augue&ullamcorper=vestibulum&augue=ante&a=ipsum&suscipit=primis&nulla=in&elit=faucibus&ac=orci&nulla=luctus&sed=et&vel=ultrices&enim=posuere&sit=cubilia&amet=curae&nunc=donec&viverra=pharetra&dapibus=magna&nulla=vestibulum&suscipit=aliquet&ligula=ultrices&in=erat&lacus=tortor&curabitur=sollicitudin&at=mi&ipsum=sit&ac=amet&tellus=lobortis&semper=sapien&interdum=sapien&mauris=non&ullamcorper=mi&purus=integer&sit=ac&amet=neque&nulla=duis&quisque=bibendum&arcu=morbi&libero=non&rutrum=quam&ac=nec&lobortis=dui",
      "lat": -6.9965948,
      "lng": 110.3740754,
      "position": {
          "lat": -6.9965948,
          "lng": 110.3740754
      }
  },
  {
      "name": "Auto Parts:O.E.M.",
      "speaker": "Michele Bentjens",
      "location": "Eira Nova",
      "date": "2023-10-12T23:04:25Z",
      "url": "http://ucla.edu/mi/sit/amet/lobortis/sapien/sapien/non.html?purus=amet&eu=consectetuer&magna=adipiscing&vulputate=elit&luctus=proin&cum=risus&sociis=praesent&natoque=lectus&penatibus=vestibulum&et=quam&magnis=sapien&dis=varius&parturient=ut&montes=blandit&nascetur=non&ridiculus=interdum&mus=in&vivamus=ante&vestibulum=vestibulum&sagittis=ante&sapien=ipsum&cum=primis&sociis=in&natoque=faucibus&penatibus=orci&et=luctus&magnis=et&dis=ultrices&parturient=posuere&montes=cubilia&nascetur=curae&ridiculus=duis&mus=faucibus&etiam=accumsan&vel=odio&augue=curabitur&vestibulum=convallis&rutrum=duis&rutrum=consequat",
      "lat": 37.8540608,
      "lng": -8.7921961,
      "position": {
          "lat": 37.8540608,
          "lng": -8.7921961
      }
  },
  {
      "name": "Industrial Machinery/Components",
      "speaker": "Brigida Gable",
      "location": "Guan’e",
      "date": "2023-03-11T13:24:33Z",
      "url": "http://cam.ac.uk/est.aspx?praesent=duis&id=consequat&massa=dui&id=nec&nisl=nisi&venenatis=volutpat&lacinia=eleifend&aenean=donec&sit=ut&amet=dolor&justo=morbi&morbi=vel&ut=lectus&odio=in&cras=quam&mi=fringilla&pede=rhoncus&malesuada=mauris&in=enim&imperdiet=leo&et=rhoncus&commodo=sed&vulputate=vestibulum&justo=sit&in=amet&blandit=cursus&ultrices=id&enim=turpis&lorem=integer&ipsum=aliquet&dolor=massa&sit=id&amet=lobortis&consectetuer=convallis&adipiscing=tortor&elit=risus&proin=dapibus&interdum=augue&mauris=vel&non=accumsan&ligula=tellus&pellentesque=nisi&ultrices=eu&phasellus=orci&id=mauris&sapien=lacinia&in=sapien&sapien=quis&iaculis=libero",
      "lat": 34.010666,
      "lng": 104.395657,
      "position": {
          "lat": 34.010666,
          "lng": 104.395657
      }
  },
  {
      "name": "Clothing/Shoe/Accessory Stores",
      "speaker": "Joby Holcroft",
      "location": "Potou",
      "date": "2023-11-18T06:05:33Z",
      "url": "https://themeforest.net/nulla/justo/aliquam/quis/turpis/eget/elit.json?varius=pede&nulla=ac&facilisi=diam",
      "lat": 21.244721,
      "lng": 110.455332,
      "position": {
          "lat": 21.244721,
          "lng": 110.455332
      }
  },
  {
      "name": "Semiconductors",
      "speaker": "Pearline Antill",
      "location": "Köln",
      "date": "2023-11-19T05:09:37Z",
      "url": "http://1und1.de/sit/amet.jsp?dui=potenti&vel=cras&sem=in&sed=purus&sagittis=eu&nam=magna&congue=vulputate&risus=luctus&semper=cum&porta=sociis&volutpat=natoque&quam=penatibus&pede=et&lobortis=magnis&ligula=dis&sit=parturient&amet=montes&eleifend=nascetur&pede=ridiculus&libero=mus",
      "lat": 50.9346454,
      "lng": 6.9331365,
      "position": {
          "lat": 50.9346454,
          "lng": 6.9331365
      }
  },
  {
      "name": "Hotels/Resorts",
      "speaker": "Jock Durn",
      "location": "Longde Chengguanzhen",
      "date": "2023-08-04T13:44:58Z",
      "url": "https://cyberchimps.com/eget/tempus/vel/pede.jsp?turpis=volutpat&a=in&pede=congue&posuere=etiam&nonummy=justo&integer=etiam&non=pretium&velit=iaculis&donec=justo&diam=in&neque=hac&vestibulum=habitasse&eget=platea&vulputate=dictumst&ut=etiam&ultrices=faucibus&vel=cursus&augue=urna&vestibulum=ut&ante=tellus&ipsum=nulla&primis=ut&in=erat&faucibus=id&orci=mauris&luctus=vulputate&et=elementum&ultrices=nullam&posuere=varius&cubilia=nulla&curae=facilisi&donec=cras&pharetra=non&magna=velit&vestibulum=nec&aliquet=nisi&ultrices=vulputate&erat=nonummy&tortor=maecenas&sollicitudin=tincidunt&mi=lacus&sit=at&amet=velit&lobortis=vivamus&sapien=vel&sapien=nulla&non=eget&mi=eros&integer=elementum&ac=pellentesque&neque=quisque&duis=porta&bibendum=volutpat&morbi=erat&non=quisque&quam=erat&nec=eros&dui=viverra&luctus=eget&rutrum=congue&nulla=eget&tellus=semper&in=rutrum&sagittis=nulla&dui=nunc&vel=purus&nisl=phasellus&duis=in&ac=felis&nibh=donec&fusce=semper&lacus=sapien&purus=a&aliquet=libero&at=nam&feugiat=dui&non=proin&pretium=leo&quis=odio&lectus=porttitor&suspendisse=id&potenti=consequat&in=in&eleifend=consequat&quam=ut&a=nulla&odio=sed&in=accumsan&hac=felis",
      "lat": 35.613293,
      "lng": 106.119491,
      "position": {
          "lat": 35.613293,
          "lng": 106.119491
      }
  },
  {
      "name": "Oil & Gas Production",
      "speaker": "Joana Gillanders",
      "location": "Lututów",
      "date": "2023-02-26T05:19:53Z",
      "url": "https://nasa.gov/sociis/natoque.js?integer=imperdiet&non=nullam&velit=orci&donec=pede&diam=venenatis&neque=non&vestibulum=sodales&eget=sed&vulputate=tincidunt&ut=eu&ultrices=felis&vel=fusce&augue=posuere&vestibulum=felis&ante=sed&ipsum=lacus&primis=morbi&in=sem&faucibus=mauris&orci=laoreet&luctus=ut&et=rhoncus&ultrices=aliquet&posuere=pulvinar&cubilia=sed&curae=nisl&donec=nunc&pharetra=rhoncus&magna=dui&vestibulum=vel&aliquet=sem&ultrices=sed&erat=sagittis&tortor=nam&sollicitudin=congue&mi=risus&sit=semper&amet=porta&lobortis=volutpat&sapien=quam&sapien=pede&non=lobortis",
      "lat": 51.3541936,
      "lng": 18.4554178,
      "position": {
          "lat": 51.3541936,
          "lng": 18.4554178
      }
  },
  {
      "name": "EDP Services",
      "speaker": "Nona Hamlet",
      "location": "Pregradnoye",
      "date": "2023-11-12T10:19:21Z",
      "url": "https://qq.com/nunc/donec.png?lectus=condimentum&aliquam=curabitur&sit=in&amet=libero&diam=ut&in=massa&magna=volutpat&bibendum=convallis&imperdiet=morbi&nullam=odio&orci=odio&pede=elementum&venenatis=eu&non=interdum&sodales=eu&sed=tincidunt&tincidunt=in&eu=leo&felis=maecenas&fusce=pulvinar&posuere=lobortis&felis=est&sed=phasellus&lacus=sit&morbi=amet&sem=erat&mauris=nulla&laoreet=tempus&ut=vivamus&rhoncus=in&aliquet=felis&pulvinar=eu&sed=sapien&nisl=cursus&nunc=vestibulum&rhoncus=proin&dui=eu&vel=mi&sem=nulla",
      "lat": 45.8209156,
      "lng": 41.7473982,
      "position": {
          "lat": 45.8209156,
          "lng": 41.7473982
      }
  },
  {
      "name": "RETAIL: Building Materials",
      "speaker": "Ailina Wilfling",
      "location": "Bogo",
      "date": "2023-09-05T13:55:57Z",
      "url": "https://bluehost.com/fusce.xml?et=augue&magnis=vestibulum&dis=rutrum&parturient=rutrum&montes=neque&nascetur=aenean&ridiculus=auctor&mus=gravida&vivamus=sem&vestibulum=praesent&sagittis=id&sapien=massa&cum=id&sociis=nisl&natoque=venenatis&penatibus=lacinia&et=aenean&magnis=sit&dis=amet&parturient=justo&montes=morbi&nascetur=ut&ridiculus=odio&mus=cras&etiam=mi&vel=pede&augue=malesuada&vestibulum=in&rutrum=imperdiet&rutrum=et&neque=commodo&aenean=vulputate&auctor=justo&gravida=in&sem=blandit&praesent=ultrices&id=enim&massa=lorem&id=ipsum&nisl=dolor&venenatis=sit&lacinia=amet&aenean=consectetuer&sit=adipiscing&amet=elit&justo=proin&morbi=interdum&ut=mauris&odio=non&cras=ligula&mi=pellentesque&pede=ultrices&malesuada=phasellus&in=id&imperdiet=sapien&et=in&commodo=sapien&vulputate=iaculis&justo=congue&in=vivamus&blandit=metus&ultrices=arcu&enim=adipiscing&lorem=molestie&ipsum=hendrerit&dolor=at&sit=vulputate&amet=vitae&consectetuer=nisl&adipiscing=aenean&elit=lectus&proin=pellentesque&interdum=eget&mauris=nunc&non=donec&ligula=quis&pellentesque=orci&ultrices=eget&phasellus=orci&id=vehicula&sapien=condimentum&in=curabitur&sapien=in&iaculis=libero&congue=ut",
      "lat": 10.7330518,
      "lng": 14.6004911,
      "position": {
          "lat": 10.7330518,
          "lng": 14.6004911
      }
  },
  {
      "name": "Medical Specialities",
      "speaker": "Baxter Cuxon",
      "location": "Rustenburg",
      "date": "2023-06-08T18:09:02Z",
      "url": "https://adobe.com/magna/at/nunc/commodo/placerat.aspx?pede=nullam&justo=porttitor&eu=lacus&massa=at&donec=turpis&dapibus=donec&duis=posuere&at=metus&velit=vitae&eu=ipsum&est=aliquam&congue=non&elementum=mauris&in=morbi&hac=non&habitasse=lectus&platea=aliquam&dictumst=sit&morbi=amet&vestibulum=diam&velit=in&id=magna&pretium=bibendum&iaculis=imperdiet&diam=nullam&erat=orci&fermentum=pede&justo=venenatis&nec=non&condimentum=sodales&neque=sed&sapien=tincidunt&placerat=eu&ante=felis&nulla=fusce&justo=posuere&aliquam=felis&quis=sed&turpis=lacus&eget=morbi&elit=sem&sodales=mauris&scelerisque=laoreet&mauris=ut&sit=rhoncus&amet=aliquet&eros=pulvinar&suspendisse=sed&accumsan=nisl&tortor=nunc&quis=rhoncus&turpis=dui&sed=vel&ante=sem&vivamus=sed",
      "lat": -26.1026584,
      "lng": 27.6952713,
      "position": {
          "lat": -26.1026584,
          "lng": 27.6952713
      }
  },
  {
      "name": "Real Estate Investment Trusts",
      "speaker": "Jeth Lanfare",
      "location": "Końskowola",
      "date": "2023-10-19T22:05:51Z",
      "url": "http://google.co.uk/felis/eu/sapien/cursus/vestibulum/proin/eu.js?tempus=sem&semper=praesent&est=id&quam=massa&pharetra=id&magna=nisl&ac=venenatis&consequat=lacinia&metus=aenean&sapien=sit&ut=amet&nunc=justo&vestibulum=morbi&ante=ut",
      "lat": 51.4090959,
      "lng": 22.051777,
      "position": {
          "lat": 51.4090959,
          "lng": 22.051777
      }
  },
  {
      "name": "n/a",
      "speaker": "Evaleen Grevel",
      "location": "Kupavna",
      "date": "2023-04-19T08:27:11Z",
      "url": "http://ed.gov/arcu/sed/augue.json?ut=ut&tellus=nunc&nulla=vestibulum&ut=ante&erat=ipsum&id=primis&mauris=in&vulputate=faucibus&elementum=orci&nullam=luctus&varius=et&nulla=ultrices&facilisi=posuere&cras=cubilia&non=curae&velit=mauris&nec=viverra&nisi=diam&vulputate=vitae&nonummy=quam&maecenas=suspendisse&tincidunt=potenti&lacus=nullam&at=porttitor&velit=lacus&vivamus=at&vel=turpis&nulla=donec&eget=posuere&eros=metus&elementum=vitae&pellentesque=ipsum&quisque=aliquam&porta=non&volutpat=mauris&erat=morbi&quisque=non&erat=lectus&eros=aliquam&viverra=sit&eget=amet&congue=diam&eget=in&semper=magna&rutrum=bibendum&nulla=imperdiet&nunc=nullam&purus=orci&phasellus=pede&in=venenatis&felis=non&donec=sodales&semper=sed&sapien=tincidunt&a=eu&libero=felis&nam=fusce&dui=posuere&proin=felis&leo=sed&odio=lacus&porttitor=morbi&id=sem&consequat=mauris&in=laoreet",
      "lat": 55.7372478,
      "lng": 38.1800493,
      "position": {
          "lat": 55.7372478,
          "lng": 38.1800493
      }
  },
  {
      "name": "Major Pharmaceuticals",
      "speaker": "Koo Henbury",
      "location": "Baguinge",
      "date": "2023-09-06T05:27:53Z",
      "url": "http://thetimes.co.uk/tincidunt/lacus/at.json?odio=molestie&condimentum=nibh&id=in&luctus=lectus&nec=pellentesque&molestie=at&sed=nulla&justo=suspendisse&pellentesque=potenti&viverra=cras&pede=in&ac=purus&diam=eu&cras=magna&pellentesque=vulputate&volutpat=luctus&dui=cum&maecenas=sociis&tristique=natoque&est=penatibus&et=et&tempus=magnis&semper=dis&est=parturient&quam=montes&pharetra=nascetur&magna=ridiculus",
      "lat": 16.7643488,
      "lng": 121.1000798,
      "position": {
          "lat": 16.7643488,
          "lng": 121.1000798
      }
  },
  {
      "name": "Construction/Ag Equipment/Trucks",
      "speaker": "Lotta Denzey",
      "location": "Chayuan",
      "date": "2023-02-18T11:18:06Z",
      "url": "http://pagesperso-orange.fr/faucibus/orci/luctus/et/ultrices/posuere/cubilia.png?eleifend=a&donec=suscipit&ut=nulla&dolor=elit&morbi=ac&vel=nulla&lectus=sed&in=vel&quam=enim&fringilla=sit&rhoncus=amet&mauris=nunc&enim=viverra&leo=dapibus&rhoncus=nulla&sed=suscipit&vestibulum=ligula&sit=in&amet=lacus&cursus=curabitur&id=at&turpis=ipsum&integer=ac&aliquet=tellus&massa=semper&id=interdum&lobortis=mauris&convallis=ullamcorper&tortor=purus&risus=sit&dapibus=amet",
      "lat": 27.716826,
      "lng": 112.007114,
      "position": {
          "lat": 27.716826,
          "lng": 112.007114
      }
  },
  {
      "name": "Industrial Machinery/Components",
      "speaker": "Chrystal Fenners",
      "location": "Sumberan",
      "date": "2023-01-23T19:11:42Z",
      "url": "https://github.io/odio/justo/sollicitudin/ut.js?eu=mattis&interdum=pulvinar&eu=nulla&tincidunt=pede&in=ullamcorper&leo=augue&maecenas=a&pulvinar=suscipit&lobortis=nulla&est=elit&phasellus=ac&sit=nulla&amet=sed&erat=vel&nulla=enim&tempus=sit&vivamus=amet&in=nunc&felis=viverra&eu=dapibus",
      "lat": -6.898384,
      "lng": 111.885002,
      "position": {
          "lat": -6.898384,
          "lng": 111.885002
      }
  }
]